rowId,code,_name,_address1,_address2,_postalCode,types,name,formattedAddress,postalCode,latitude,longitude,score
0,000100,KEPPEL FELS LIMITED -DR GIDEON NG,50 GUL ROAD,MEDICAL CTR.,629350,"[""establishment"",""health"",""point_of_interest""]",Medical Centre Keppel Fels Ltd,"50 Gul Rd, Singapore 629351",629351,1.2947386,103.6717041,1.0
1,000396,PCS MEDICAL CTR.,100 AYER MERBAU RD.,,628277,"[""establishment"",""health"",""point_of_interest""]",PCS Medical Centre,Singapore 628277,628277,1.264568,103.724163,0.0
2,000481,MAJLIS UGAMA ISLAM SINGAPURA PILGRIMAGE SECTION,273 BRADDELL ROAD,,579702,"[""establishment"",""point_of_interest""]",Islamic Religious Council of Singapore,"273 Braddell Rd, Singapore 579702",579702,1.3431513,103.852263,1.0
3,000586,"WONG, ONG & PARTNERS- DR ONG ENG CHIANG",39 ROBINSON ROAD,#17-02 ROBINSON POINT,068911,"[""dentist"",""establishment"",""health"",""point_of_interest""]",Wong Ong & Partners Dental Surgeons,"39 Robinson Rd, #17-02, Singapore 068911",068911,1.2795904,103.8494785,0.0
4,000930,ADVANCE SURGICAL GROUP PTE LTD,290 ORCHARD RD.,#08-01 PARAGON MEDICAL TOWER (LOBBY 2),238859,"[""doctor"",""establishment"",""health"",""point_of_interest""]",Advance Surgical Group,"290 Orchard Road #18-01 Paragon, Medical, Tower (Lobby 2 Orchard, Singapore 238859",238859,1.304246,103.836086,0.0
5,000964,ISLAND VETERINARY CLINIC PTE LTD,BLK 114 JURONG EAST ST 13,#01-404,600114,"[""establishment"",""health"",""point_of_interest"",""veterinary_care""]",Island Vet,"114 Jurong East Street 13, #01-404, Singapore 600114",600114,1.3390869,103.7345676,0.0
6,100002,TAN TOCK SENG HOSPITAL PTE LTD,MOULMEIN RD.,PHARMACY DEPT,308087,"[""establishment"",""health"",""hospital"",""point_of_interest""]",Tan Tock Seng Hospital,"11 Jln Tan Tock Seng, Singapore 308433",308433,1.3213889,103.8458333,1.0
7,100004,SINGAPORE GENERAL HOSPITAL PTE LTD THE PHARMACY,BLK 8 LEVEL 2 OUTRAM ROAD,1FSS PTE LTD,169036,"[""establishment"",""health"",""hospital"",""point_of_interest""]",Singapore General Hospital,"Outram Rd, Singapore 169608",169608,1.279677,103.835984,1.0
8,100015,SATA COMMHEALTH,351 CHAI CHEE ST,,468982,"[""establishment"",""health"",""hospital"",""physiotherapist"",""point_of_interest""]",SATA CommHealth Uttamram Bedok,"351 Chai Chee St, SATA CommHealth Building, Corporate HQ, Singapore 468982",468982,1.3279741,103.9211413,0.0
9,100030,NATIONAL UNIVERSITY HOSPITAL (S) PTE LTD,LOWER KENT RIDGE RD.,PHARMACY DEPARTMENT,119074,"[""establishment"",""health"",""hospital"",""point_of_interest""]",National University Hospital,"5 Lower Kent Ridge Rd, Singapore 119074",119074,1.2938663,103.7831292,0.0
10,100060,CHANGI GENERAL HOSPITAL PTE LTD,2 SIMEI ST. 3,,529889,"[""establishment"",""health"",""hospital"",""point_of_interest""]",Changi General Hospital,"2 Simei Street 3, Singapore 529889",529889,1.3401915,103.9495701,0.0
11,100065,INSTITUTE OF MENTAL HEALTH,PHARMACY DEPT,BUANGKOK GREEN MEDICAL PARK,539747,"[""establishment"",""health"",""point_of_interest""]",Buangkok Green Medical Park,"10 Buangkok View, Singapore 539747",539747,1.3824524,103.8855753,0.0
12,100070,MEDICAL LOGISTICS BRANCH,"701, TRANSIT ROAD",#04-01 AFPN 1202,778910,"[""subpremise""]","701 Transit Rd, 04","701 Transit Rd, 04, Singapore 778910",778910,1.4053759,103.8158163,1.0
13,100097,AMK-THYE HUA KWAN HOSPITAL LTD,17 ANG MO KIO AVENUE 9,,569766,"[""establishment"",""health"",""hospital"",""point_of_interest""]",Ang Mo Kio-Thye Hua Kwan Hospital,"17 Ang Mo Kio Ave 9, Singapore 569766",569766,1.383513,103.8402041,0.0
14,100105,NATIONAL HEART CTR OF SINGAPORE PTE LTD,MISTRI WING,17 THIRD HOSPITAL AVENUE,169609,"[""establishment"",""health"",""hospital"",""point_of_interest""]",National Heart Centre Singapore,"5 Hospital Dr, Singapore 169609",169609,1.2785753,103.8361084,0.0
15,100114,SINGHEALTH POLYCLINICS-TAMPINESBRCH,167 JALAN BUKIT MERAH,TOWER 5 #15-10,529203,"[""subpremise""]","167 Jalan Bukit Merah, TOWER 5 #15","167 Jalan Bukit Merah, TOWER 5 #15, Singapore 150167",150167,1.2827221,103.8184563,1.4142135
16,100123,SINGHEALTH POLYCLINICS-BEDOK BRANCH,167 JLN BKT. MERA,#15-10 INSTITUTE OF HEALTH TOWER 5,460212,"[""establishment"",""health"",""point_of_interest""]",SingHealth Polyclinics - Bedok,"Heartbeat@ #02-01, #03-01, Singapore 469662, 11 Bedok North Street 1, Singapore",460212,1.3271154,103.9322113,1.0
17,100125,SINGHEALTH POLYCLINICS- BKT MERAH BRCH,BLK 163 BUKIT MERAH CENTRAL,#15-10 INSTITUTE OF HEALTH TOWER 5,150163,"[""premise""]",163 Bukit Merah Central,"163 Bukit Merah Central, Singapore 150163",150163,1.2837537,103.8170072,1.0
18,100128,SINGHEALTH POLYCLINICS-GEYLANG BRCH,21 GEYLANG EAST CENTRAL,SINGAPORE,389707,"[""establishment"",""health"",""point_of_interest""]",Geylang Polyclinic,"21 Geylang East Central, Singapore 389707",389707,1.3194787,103.8871586,0.0
19,100132,SINGHEALTH POLYCLINICS- MARINE PARADE BRCH,BLK 80 MARINE PARADE CENTRAL,#15-10 INSTITUTE OF HEALTH TOWER 5,440080,"[""establishment"",""health"",""point_of_interest""]",SingHealth Polyclinics - Marine Parade,"01-792, 80 Marine Parade Central, Singapore 440080",440080,1.3024486,103.9077127,0.0
20,100134,SINGHEALTH POLYCLINICS-QUEENSTOWN BRCH,580 STIRLING ROAD,LEVEL 2 (PHARMACY DEPT),148958,"[""establishment"",""health"",""point_of_interest""]",Queenstown Polyclinic,"580 Stirling Rd, Singapore 148958",148958,1.2984803,103.8010202,0.0
21,100165,NATIONAL CANCER CTR PTE LTD,11 HOSPITAL DRIVE,LEVEL 4,169610,"[""establishment"",""health"",""hospital"",""point_of_interest""]",National Cancer Centre Singapore,"11 Hospital Crescent, Singapore 169610",169610,1.2794134,103.8367369,0.0
22,100176,SINGHEALTH POLYCLINIC- OUTRAM POLYCLINIC,INSTITUTE OF HEALTH,3 SECOND HOSPITAL AVENUE,168937,"[""establishment"",""health"",""point_of_interest""]",SingHealth Polyclinics - Outram,"3 Second Hospital Ave, #02-00 Health Promotion Board Building, Singapore 168937",168937,1.2796882,103.8382459,0.0
23,100193,SATA COMMHEALTH,WOODLANDS MEDICAL CTR. 900 SOUTH,WOODLANDS DRIVE #04-01 WOODLAND CIVIC CT,730900,"[""establishment"",""health"",""hospital"",""physiotherapist"",""point_of_interest""]",SATA CommHealth Woodlands Medical Centre,"900, #04-01 South Woodlands Drive, Civic Centre, Singapore 730900",730900,1.4350909,103.7867642,0.0
24,100195,HEALTH SCIENCES AUTHORITY,11 OUTRAM RD.,,169078,"[""establishment"",""health"",""point_of_interest""]",Health Sciences Authority,"11 Outram Rd, Singapore 169078",169078,1.280434,103.838439,0.0
25,100202,SINGHEALTH POLYCLINIC-PASIR RISBRCH,167 JLN BKT. MERAH,#15-10 INSTITUTE OF HEALTH TOWER 5,519457,"[""establishment"",""health"",""point_of_interest""]",SingHealth Polyclinics - Pasir Ris,"1 Pasir Ris Drive 4, #01-11, Singapore 519457",519457,1.3684543,103.9594183,0.0
26,100209,ST LOGISTICS PTE LTD,AFPN 1556J ARMY LOGISTIC BASE,601 OLD CHOA CHU KANG ROAD,699817,"[""establishment"",""point_of_interest""]",Army Logistics Base,"601 Old Choa Chu Kang Rd, Singapore 699817",699817,1.3733912,103.7184437,1.0
27,100274,SINGHEALTH POLYCLINICS-SENGKANGBRCH,2 SENGKANG SQUARE,,545025,"[""establishment"",""health"",""point_of_interest""]",SingHealth Polyclinics - Sengkang,"2 Sengkang Square, #01-06, Singapore 545025",545025,1.3927635,103.8940278,0.0
28,100340,JURONG MEDICAL CTR.,60 JURONG WEST CENTRAL 3,#01-08,648346,"[""establishment"",""health"",""hospital"",""point_of_interest""]",Jurong Medical Centre,"60 Jurong West Central 3, Singapore 648346",648346,1.3407136,103.7044,0.0
29,100342,ALEXANDRA HEALTH PTE LTD C/O KHOO TECK PUAT HOSPIT,C/O KHOO TECK PUAT HOSPITAL,90 YISHUN CENTRAL,768828,"[""establishment"",""health"",""hospital"",""point_of_interest""]",Khoo Teck Puat Hospital,"90 Yishun Central, Singapore 768828",768828,1.4246142,103.838217,0.0
30,200001,ABRAHAM'S ENT SURGERY P/L,290 ORCHARD RD.,#11-10 PARAGON,228859,"[""establishment"",""health"",""point_of_interest""]",Abraham Ear Nose & Throat Surgery Pte Ltd,"290 Orchard Rd, #11-10, Singapore 238859",238859,1.303864,103.8353591,1.0
31,200017,AMK MEDICAL CTR. - DR TAN SEUNG PO,BLOCK 157 ANG MO KIO AVENUE 4,#01-558,560157,"[""establishment"",""health"",""hospital"",""point_of_interest""]",Ang Mo Kio Medical Centre,"157 Ang Mo Kio Ave 4, Singapore 560157",560157,1.375193,103.839665,0.0
32,200018,P K ANG FAMILY CLINIC & SURGERY,BLOCK 106 HOUGANG AVENUE 1,#01-1225 (CORP-C & TERM),530106,"[""establishment"",""health"",""point_of_interest""]",P.K. Ang Family Clinic & Surgery,"106 Hougang Ave 1, #01-1225, Singapore 530106",530106,1.35398,103.8908827,0.0
33,200019,ANTEH DISPENSARY - DR JOYCE LIANG (C/O ANTEH DISPE,1 LORONG 22 GEYLANG,#01-02 GRANDVIEW SUITES,398664,"[""doctor"",""establishment"",""health"",""point_of_interest""]",Anteh Dispensary,"1 Lor 22 Geylang, #01-02 GRANDVIEW SUITES, Singapore 398664",398664,1.3128254,103.8824525,0.0
34,200021,THOMAS CLINIC & SURGERY- DR THOMAS CHERIAN,BLOCK 61 TELOK BLANGAH HEIGHTS,#01-97,100061,"[""establishment"",""health"",""point_of_interest""]",Thomas Clinic & Surgery,"61 Telok Blangah Heights, Singapore 100061",100061,1.2758056,103.8118906,0.0
35,200031,DRS BAIN & PARTNERS LLP,350 ORCHARD RD.,#15-05/06 SHAW HOUSE,238868,"[""establishment"",""health"",""point_of_interest""]",Drs. Bain & Partners - Orchard,"350 Orchard Rd, Singapore 238868",238868,1.3057331,103.8314536,0.0
36,200033,BALKIS FAMILY CLINIC- DR BALKIS AKBAR ALI,BLOCK 631 BEDOK RESERVOIR RD.,#01-968,470631,"[""establishment"",""health"",""point_of_interest""]",Balkis Family Clinic,"631 Bedok Reservoir Rd, #01-968, Singapore 470631",470631,1.333675,103.9147639,0.0
37,200034,BEDOK CLINIC & SURGERY- DR FONG KHEE LENG,BLOCK 17 BEDOK SOUTH RD.,#01-565,460017,"[""establishment"",""health"",""point_of_interest""]",Bedok Clinic & Sugery,"17 Bedok S Rd, Singapore 460017",460017,1.3203316,103.9359539,0.0
38,200035,BEDOK LIFE CLINIC - DR K C QUEK,BLOCK 123 BEDOK NORTH ST. 2,#01-160,460123,"[""establishment"",""health"",""point_of_interest""]",Bedok Life Clinic,"123 #01-160 Bedok North Street 2, Singapore 460123",460123,1.3273618,103.9386283,0.0
39,200037,BEDOK MEDICAL CTR- DR HENRY YEO,BLOCK 18 BEDOK SOUTH RD.,#01-57,460018,"[""establishment"",""health"",""point_of_interest""]",Bedok Medical Centre,"18 Bedok S Rd, #01-57, Singapore 460018",460018,1.319993,103.9348223,0.0
40,200043,BOON LAY CENTRAL CLINIC- DR SEET HIN MIN,BLOCK 221 BOON LAY PLACE,#01-242 BOON LAY SHOPPING CTR.,640221,"[""establishment"",""health"",""point_of_interest""]",Jurong 13th Mile Clinic,"Boon Lay Shopping Centre #01-242, 221 Boon Lay Place (S)640221, Singapore 640221",640221,1.3463626,103.7124813,0.0
41,200044,BOON LAY CLINIC & SURGERY- DR CHAU SIK TING,BLOCK 221 BOON LAY PLACE,#01-240 BOON LAY SHOPPING CTR.,640221,"[""establishment"",""health"",""point_of_interest""]",Boon Lay Clinic and surgery,"221 Boon Lay Pl, #01-240, Singapore 640221",640221,1.346566,103.7120156,0.0
42,200045,BKT BATOK MEDICAL CLINIC- DR KWEK THIAM SOO,BLOCK 207 BUKIT BATOK ST 21,#01-114,650207,"[""establishment"",""health"",""point_of_interest""]",Bukit Batok Medical Clinic,"207 Bukit Batok Street 21, #01-114, Singapore 650207",650207,1.3461964,103.7493474,0.0
43,200046,BKT TIMAH CLINIC- DR KWEE WEE HOCK DAVID,621A BUKIT TIMAH RD.,,269731,"[""establishment"",""health"",""point_of_interest""]",Bukit Timah Clinic,"621A Bukit Timah Rd, Singapore 269731",269731,1.3246592,103.8090916,0.0
44,200047,BKT TIMAH NAM SANG CLINIC- DR KOH SWEE HIANG,80 JALAN JURONG KECHIL,,598591,"[""establishment"",""health"",""point_of_interest""]",Bukit Timah Nam Sang Clinic,"80 Jln Jurong Kechil, Singapore 598591",598591,1.3404609,103.7732241,0.0
45,200061,CHAN CLINIC FOR CHILDREN C/O CHAN SING KIT P/L,6 NAPIER RD.,#09-09 GLENEAGLES MEDICAL CTR.,258499,"[""doctor"",""establishment"",""health"",""hospital"",""point_of_interest""]",Dr BL Lim Centre For Psychological Wellness - Psychiatrist Singapore,"6 Napier Rd, #09-09 Gleneagles Medical Centre, Singapore 258499",258499,1.3073365,103.8195895,0.0
46,200062,CHAN EAR NOSE & THROAT SURGERY- DR CHAN SIEW CHEE,6 NAPIER RD.,#09-07 GLENEAGLES MEDICAL CENTRE,258499,"[""doctor"",""establishment"",""health"",""point_of_interest""]",DR CHAN SIEW CHEE,"6 Napier Rd, Singapore 258499",258499,1.307592,103.8199225,0.0
47,200063,CHANG CLINIC - DR CHANG TOU LIANG,1 JALAN ANAK BUKIT,#B1-09/10 BUKIT TIMAH PLAZA,588996,"[""establishment"",""health"",""point_of_interest""]",Chang Clinic,"1 Jln Anak Bukit, #B1 08-10, Singapore 588996",588996,1.3389815,103.7788238,0.0
48,200069,CHAN MED & ENDO/CHAN MEC P/L- DR CHAN HENG CHUN,6 NAPIER RD.,#08-05 GLENEAGLES MEDICAL CTR.,258499,"[""doctor"",""establishment"",""health"",""point_of_interest""]",gutCARE Digestive Â· Liver Â· Endoscopy Associates @ Gleneagles Hospital,"6 Napier Rd, #07-19 Gleneagles Medical Centre, Singapore 258499",258499,1.3076257,103.8202012,0.0
49,200089,CHEW DA COSTA PTE LTD - DR J L DA COSTA,1 GRANGE RD.,#10-11 ORCHARD BUILDING,239693,"[""establishment"",""health"",""point_of_interest""]",Chew Da Costa Pte. Ltd.,"1 Grange Rd, Singapore 239693",239693,1.3014488,103.8372499,0.0
50,200095,CHAIM CLINIC - DR CHAIM HENG TIN,BLOCK 111 LORONG 1 TOA PAYOH,#01-350,310111,"[""establishment"",""health"",""point_of_interest""]",Chaim Clinic,"#01- 350, Block, 111 Lor 1 Toa Payoh, Singapore 310111",310111,1.34118,103.8457355,0.0
51,200106,CHONG CLINIC - DR CHONG TZE SHING,BLOCK 703 BEDOK RESERVOIR RD.,#01-3500,470703,"[""establishment"",""health"",""point_of_interest""]",Chong Clinic,"703 Bedok Reservoir Rd, Singapore 470703",470703,1.3369819,103.9202078,0.0
52,200107,CHONG'S CLINIC - DR YUEN JYE,234 UPPER THOMSON RD.,,574365,"[""establishment"",""health"",""point_of_interest""]",Chong's Clinic,"234 Upper Thomson Rd, Singapore 574365",574365,1.3530911,103.8350081,0.0
53,200109,CHONG'S MEDICAL CTR- DR CHONG CHIN KAH,190 CLEMENCEAU AVE ( NO COD ORDERS),#01-29/30 SINGAPORE SHOPPING CENTRE,239924,"[""establishment"",""health"",""point_of_interest""]",Chong's Medical Centre,"190 Clemenceau Ave, Singapore 239924",239924,1.298146,103.8441579,0.0
54,200110,G & H MEDICAL CLINIC P/L- DR GOH CHENG HONG,BLOCK 106 YISHUN RING RD.,#01-173,760106,"[""establishment"",""health"",""point_of_interest""]",G & H Medical Clinic Pte Ltd,"106 Yishun Ring Rd, Singapore 760106",760106,1.4318012,103.8270259,0.0
55,200112,KAI CLINIC - DR ALAN HO CHOK CHAN,223 EAST COAST RD.,,428920,"[""establishment"",""health"",""point_of_interest""]",Kai Clinic,"223 E Coast Rd, Singapore 428920",428920,1.3075503,103.9071627,0.0
56,200117,HEALTHSPRINGS MEDICAL ASSOCIATES,541 ORCHARD RD.,#10-02 LIAT TOWER,238881,"[""establishment"",""health"",""point_of_interest""]",Healthsprings Medical Clinic (Liat Towers),"541 Orchard Rd, #10-02 Liat Towers, Singapore 238881",238881,1.3051935,103.8305934,0.0
57,200121,ROWELL CLINIC & SURGERY- DR SNG LUI CHENG,BLOCK 642 ROWELL RD.,#01-115,200642,"[""establishment"",""health"",""point_of_interest""]",Rowell Clinic & Surgery,"642 Rowell Rd, #01-115, Singapore 200642",200642,1.3078365,103.8565478,0.0
58,200124,THE SKIN CLINIC,80 MARINE PARADE RD.,#04-03 PARKWAY PARADE,449269,"[""establishment"",""health"",""hospital"",""point_of_interest"",""spa""]",SKN MediAesthetics (Parkway Parade),"80 Marine Parade Road #05-01, Parkway Parade, Singapore 449269",449269,1.3013718,103.905449,0.0
59,200126,DRS CHUA & PARTNERS PTE LTD,1 TANJONG PAGAR PLAZA,#01-10,082001,"[""establishment"",""health"",""point_of_interest""]",Drs. Chua & Partners Pte Ltd,"1 Tanjong Pagar Plaza, #01-10, Singapore 082001",082001,1.275726,103.842667,0.0
60,200127,CHUNGKIAW CLINIC - DR KEVIN KOH,68 JALAN JURONG KECHIL,#01-01 SUITES AT BUKIT TIMAH,596180,"[""establishment"",""health"",""point_of_interest""]",Chung Kiaw Clinic,"68 Jln Jurong Kechil, #01-01 Suites@Bukit Timah, Singapore 596180",596180,1.340499,103.7738004,0.0
61,200132,"THE JAPANESE ASSOCIATION CLINIC, SINGAPORE",120 ADAM RD.,,289899,"[""establishment"",""point_of_interest""]",The Japanese Association,"120 Adam Rd, Singapore 289899",289899,1.3306188,103.8158336,1.0
62,200133,CIVIC CLINIC - DR OOI TEIK HUAT,BLOCK 537 BEDOK NORTH ST. 3,#01-515,460537,"[""establishment"",""health"",""point_of_interest""]",The Civic Clinic Bedok,"537 Bedok North Street 3, HDB Bedok, Singapore 460537",460537,1.3325244,103.9242909,0.0
63,200136,"CLIFFORD DISPENSARY P/L-DRS LEE,LEOW,KC LEE",77 ROBINSON RD.,#06-02 SIA BUILDING,068896,"[""doctor"",""establishment"",""health"",""point_of_interest""]",Clifford Dispensary,"350 Orchard Rd, #15-03 Shaw House, Singapore 238868",238868,1.30582,103.8313158,1.0
64,200137,CLIFFORD DISPENSARY PTE LTD,350 ORCHARD RD.,#15-03 SHAW HOUSE (CORP-C LIMIT 20K),238868,"[""doctor"",""establishment"",""health"",""point_of_interest""]",Clifford Dispensary,"350 Orchard Rd, #15-03 Shaw House, Singapore 238868",238868,1.30582,103.8313158,0.0
65,200140,YIO CHU KANG MRT CLINIC P/L- DR TERENCE KOH,BLOCK 635 ANG MO KIO AVENUE 6,#01-5125,560635,"[""establishment"",""health"",""point_of_interest""]",Yio Chu Kang MRT Clinic,"635 Ang Mo Kio Ave 6, #01-5125, Singapore 560635",560635,1.3807326,103.8420933,0.0
66,200151,CHIEW CLINIC P/L- KENNETH Y W CHIEW YUEN WENG,2 KOVAN RD.,#01-09 SIMON PLAZA,548008,"[""establishment"",""health"",""point_of_interest""]",Chiew Clinic,"2 Kovan Rd, #01-09 Simon Plaza, Singapore 548008",548008,1.3620411,103.8851984,0.0
67,200152,CRESCENT CLINIC & SURGERY DR M TAHIR,BLOCK 1A EUNOS CRESCENT,#01-2473,401001,"[""establishment"",""health"",""point_of_interest""]",Crescent Clinic & Surgery,"1A Eunos Cres, Singapore 401001",401001,1.3213586,103.9027996,0.0
68,200154,DOVER CLINIC & SURGERY- DR CHEW GIAN MOH,BLOCK 28 DOVER CRESCENT,#01-89 MULTI STOREY CAR PARK,130028,"[""establishment"",""health"",""point_of_interest""]",Dover Clinic & Surgery,"28 Dover Cres, Singapore 130028",130028,1.3047171,103.7816099,0.0
69,200157,EASTERN CLINIC & SURGERY P/L-DR TAN CHIN HOR,BLOCK 235 JURONG EAST ST. 21,#01-316,600235,"[""establishment"",""health"",""point_of_interest""]",Eastern Clinic & Surgery Pte Ltd,"235 Jurong East Street 21, Singapore 600235",600235,1.3398141,103.7421324,0.0
70,200158,EASTERN MEDICAL CTR- DR FONG CHIU YAN,BLOCK 631 BEDOK RESERVOIR RD.,#01-896,470631,"[""establishment"",""health"",""point_of_interest""]",Eastern Medical Centre,"631 Bedok Reservoir Rd, Singapore 470631",470631,1.3331066,103.9155434,0.0
71,200164,EVERTON CLINIC PTE LTD-DR LILY LIE,7 EVERTON PARK,#01-17,080007,"[""establishment"",""health"",""point_of_interest""]",Everton Clinic,"7 Everton Park, Singapore 080007",080007,1.277088,103.8393474,0.0
72,200178,DRS FERNANDEZ & PARTNERS,1 GRANGE ROAD,#12-04 ORCHARD BUILDING,239693,"[""doctor"",""establishment"",""health"",""point_of_interest""]",Fernandez & Partners Drs,"1 Grange Rd, #12-04, Singapore 239693",239693,1.30147,103.8374201,0.0
73,200181,FONG'S CLINIC FOR WOMEN- DR FONG CHUAN WEE,6 NAPIER RD.,#05-18 GLENEAGLES MEDICAL CENTRE,258499,"[""establishment"",""health"",""point_of_interest""]",Fong's Clinic For Women,"6 Napier Rd, Singapore 258499",258499,1.3077263,103.8200865,0.0
74,200184,FRANKEL CLINIC - DR GAN CHENG HOE,697 EAST COAST RD.,#01-01,459060,"[""establishment"",""health"",""point_of_interest""]",Frankel Clinic,"697 E Coast Rd, # 01-01, Singapore 459056",459056,1.3120234,103.9221283,1.0
75,200188,GASTROENTEROLOGY CLINIC- DR BENNY ANG,3 MOUNT ELIZABETH,#09-10 MT ELIZABETH MEDICAL CTR.,228510,"[""establishment"",""health"",""point_of_interest""]",Gastroenterology Clinic Pte Ltd,"3 Mount Elizabeth, Singapore 228510",228510,1.3057189,103.8357928,0.0
76,200192,GEYLANG BAHRU CLINIC- DR LIAO KIAN HUAT,BLOCK 16 UPPER BOON KENG RD.,#01-1093,380016,"[""doctor"",""establishment"",""health"",""point_of_interest""]",Geylang Bahru Clinic,"16 Upper Boon Keng Rd, Singapore 380016",380016,1.3154717,103.8715659,0.0
77,200193,GEYLANG SERAI CLINIC- DR VICTOR NG KOON KENG,138 CHANGI RD.,,419722,"[""establishment"",""health"",""point_of_interest""]",Geylang Serai Clinic,"138 Changi Rd, Singapore 419722",419722,1.3167391,103.9016662,0.0
78,200201,GRACE CLINIC - DR CHONG FOONG CHONG,BLK 333 KRETA AYER RD.,#02-14,080333,"[""establishment"",""health"",""point_of_interest""]",Grace Clinic,"333 Kreta Ayer Rd, #02-14, Singapore 080333",080333,1.281341,103.8421498,0.0
79,200203,G.S. CLINIC & SURGERY P/L- DR GOH H P/DR SEAH,BLOCK 632 ANG MO KIO AVENUE 4,#01-960,560632,"[""establishment"",""health"",""point_of_interest""]",GS Clinic and Surgery,"Block 632 HDB, 632 Ang Mo Kio Ave 4, Singapore 560632",560632,1.3799826,103.8414166,0.0
80,200205,GWEE ENDOCRINE & MEDICAL CLINIC- DR GWEE HAK MENG,3 MOUNT ELIZABETH,#16-05 MT ELIZABETH MEDICAL CTR.,228510,"[""establishment"",""health"",""hospital"",""point_of_interest""]",Mount Elizabeth Medical Centre,"3 Mount Elizabeth, Singapore 228510",228510,1.3045666,103.8354606,0.0
81,200206,HAIG SPECIALIST MED CLINIC P/L-DR MUKUND DOSHI,319 JOO CHIAT PLACE,#03-01 EAST SHORE MEDICAL CTR.HAIG CLINIC,427989,"[""doctor"",""establishment"",""health"",""point_of_interest""]",Haig Specialist Medical Clinic Pte Ltd,"319 Joo Chiat Pl, #03-01 Parkway East Medical Centre, Singapore 427989",427989,1.315135,103.90899,0.0
82,200223,HO MEDICAL CTR. P/L - DR PAUL HO,BLOCK 352 CLEMENTI AVENUE 2,#01-115,120352,"[""establishment"",""health"",""hospital"",""point_of_interest""]",Ho Medical Centre Pte Ltd,"Clementi Ave 2, #01-115 Block 352, Singapore 120352",120352,1.3147527,103.771577,0.0
83,200228,HONG WHYE CLINIC- DR CHUNG WENG SIONG,BLOCK 412 BEDOK NORTH AVENUE 2,#01-144,460412,"[""establishment"",""health"",""point_of_interest""]",Hong Whye Clinic,"412 Bedok North Ave 2, Singapore 460412",460412,1.329392,103.9310795,0.0
84,200246,JAPAN CLINIC & SURGERY- DR CHEE WENG SUN,BLOCK 802 FRENCH RD.,#01-55,200802,"[""establishment"",""health"",""point_of_interest""]",Japan Clinic & Surgery,"802 French Rd, #01-55, Singapore 200802",200802,1.3073492,103.8601093,0.0
85,200247,JAPAN GREEN CLINIC- DR LOH BAN CHYE,290 ORCHARD RD.,#10-01 PARAGON,238859,"[""establishment"",""health"",""point_of_interest""]",Japan Green Hospital,"290 Orchard Rd, # 10-01 Paragon, Singapore 238859",238859,1.3036974,103.8357488,0.0
86,200248,JINMIN CLINIC - DR HO SOON LYE,430 CHANGI RD.,,419872,"[""establishment"",""health"",""point_of_interest""]",Jinmin Clinic,"430 Changi Rd, Singapore 419872",419872,1.3188243,103.9118444,0.0
87,200260,KANG CLINIC - DR KANG CHUNG MENG,BLK 532 ANG MO KIO AVENUEE 10,#01-2465 CHENG SAN CENTRE,560532,"[""establishment"",""health"",""point_of_interest""]",Kang Clinic,"Ang Mo Kio Avenue 10, #01-2465, Block 532, Singapore 560532",560532,1.3739238,103.8551002,0.0
88,200281,KOH CLINIC & SURGERY- DR KOH BOON WAH,BLOCK 166 BUKIT BATOK WEST AVE 8,#01-250,650166,"[""establishment"",""health"",""point_of_interest""]",Koh Clinic & Surgery,"166 Bukit Batok West Ave 8, Singapore 650166",650166,1.3471402,103.7426649,0.0
89,200282,KOH CLINIC & SURGERY-DR KOH AI PENG,BLOCK 801 TAMPINES AVENUE 4,#01-269,520801,"[""establishment"",""health"",""point_of_interest""]",Koh Clinic & Surgery Pte. Ltd.,"801 Tampines Ave 4, Singapore 520801",520801,1.3471893,103.93801,0.0
90,200286,C Y KOK CLINIC & SURGERY- DR KOK CHIN YON,BLOCK 157 ANG MO KIO AVENUE 4,#01-562,560157,"[""establishment"",""health"",""point_of_interest""]",C.Y. Kok Clinic & Surgery,"157 Ang Mo Kio Ave 4, Singapore 560157",560157,1.37526,103.839382,0.0
91,200287,KONG CLINIC & SURGERY- DR KONG SIN MING,BLOCK 293 YISHUN ST 22,#01-223 (CUSTOMER USE CORP-C FOR ORDER),760293,"[""establishment"",""health"",""point_of_interest""]",Kong Clinic & Surgery,"293 Yishun Street 22, Singapore 760293",760293,1.4359878,103.8381527,0.0
92,200288,QUALITAS HEALTHCARE PTE LTD C/O KONG KIAN CLINIC,187 UPPER PAYA LEBAR RD.,,534869,"[""establishment"",""health"",""point_of_interest""]",qualitas healthcare pte ltd,"539 Bedok North Street 3, Singapore 460539",460539,1.3317922,103.9257597,1.0
93,200291,KIN MUN CLINIC- DR VICTOR WEE SIP LEONG,BLOCK 66 LORONG 4 TOA PAYOH,#01-319,310066,"[""establishment"",""health"",""point_of_interest""]",Kin Mun Clinic,"66 Lor 4 Toa Payoh, Singapore 310066",310066,1.335012,103.85174,0.0
94,200299,M LAM CLINIC - DR TAN PEH KHEE,739 GEYLANG RD.,,389649,"[""doctor"",""establishment"",""health"",""point_of_interest""]",M Lam Clinic,"739 Geylang Rd, Singapore 389649",389649,1.314894,103.8904988,0.0
95,200305,LEE CLINIC & SURGERY- DR LEE KEEN KHUEN,BLOCK 333 KRETA AYER RD.,#01-20,080333,"[""establishment"",""health"",""point_of_interest""]",Lee Clinic & Surgery,"333 Kreta Ayer Rd, Singapore 080333",080333,1.280862,103.8423663,0.0
96,200307,S.Y. LEE CLINIC - DR LEE SUAN YEW,400 BALESTIER RD.,#01-11 BALESTIER PLAZA,329802,"[""establishment"",""health"",""point_of_interest""]",SY Lee Clinic,"400 Balestier Rd, 01- 11, Singapore 329802",329802,1.3258864,103.850112,0.0
97,200315,LEONG CLINIC - DR LEONG SU CHEN,63B LENGKOK BAHRU,#01-366,151063,"[""establishment"",""health"",""point_of_interest""]",Leong Clinic,"63B Lengkok Bahru, #01-366, Singapore 152063",152063,1.2895374,103.8156928,1.0
98,200318,LIANG CLINIC - DR LIANG HSUEH LIN,695D EAST COAST RD.,,459059,"[""establishment"",""health"",""point_of_interest""]",Liang Clinic,"55 Siglap Rd, #B1-15/16 Siglap Centre, Singapore 455871",455871,1.3125983,103.9231991,1.0
99,200322,LIEW CLINIC - DR LIEW B L,5000G MARINE PARADE RD.,#01-31 LAGUNA PARK,449290,"[""establishment"",""health"",""point_of_interest""]",Liew Clinic,"5000G Marine Parade Rd, #01-31, Singapore 449290",449290,1.310052,103.932002,0.0
100,200323,LIEW CLINIC & SURGERY- DR LIEW AH KIONG,BLOCK 116 BUKIT MERAH VIEW,#01-223,151116,"[""establishment"",""health"",""point_of_interest""]",Liew Clinic & Surgery,"116 Bukit Merah View, #01-223, Singapore 151116",151116,1.2851459,103.82146,0.0
101,200330,LIM CLINIC - DR LIM WEE NI,295 CHANGI RD.,,419773,"[""establishment"",""health"",""point_of_interest""]",Lim Clinic,"295 Changi Rd, Singapore 419773",419773,1.3181712,103.9071036,0.0
102,200333,LIM CLINIC & SURGERY- DR LIM LIANG BOON,BLOCK 20 CHAI CHEE RD.,#01-420,461020,"[""establishment"",""health"",""point_of_interest""]",Lim Clinic & Surgery,"20 Chai Chee Rd, #01-418 420 S, Singapore 461020",461020,1.3261856,103.9231452,0.0
103,200336,DRS LIM & CHAN- DR C L LIM & DR S M CHAN,BLOCK 2 LORONG LEW LIAN,#01-50,530002,"[""establishment"",""health"",""point_of_interest""]",Drs Lim & Chan Clinic,"2 Lor Lew Lian, #01-50, Singapore 531002",531002,1.3507319,103.8758729,1.0
104,200337,DRS LIM & CHAN CLINIC- DR C L LIM & DR S M CHAN,BLOCK 106 HOUGANG AVENUE 1,#01-1235,530106,"[""establishment"",""health"",""point_of_interest""]",Drs Lim and Chan Clinic,"106 Hougang Ave 1, Singapore 530106",530106,1.3537046,103.8906106,0.0
105,200341,LIM MEDICAL CLINIC-DR LIM SWEE HOCK,BLOCK 320 CLEMENTI AVENUE 4,#01-29,120320,"[""establishment"",""health"",""point_of_interest""]",Lim Medical Clinic,"320 Clementi Ave 4, Singapore 120320",120320,1.3170701,103.7653573,0.0
106,200346,LIM CLINIC - DR LIM WAN IE,BLOCK 446 ANG MO KIO AVENUE 10,#01-1663,560446,"[""establishment"",""health"",""point_of_interest""]",Lim Clinic,"446 Ang Mo Kio Ave 10, #01-1663, Singapore 560446",560446,1.367823,103.8552799,0.0
107,200347,LOH'S CLINIC - DR LOH HUNG GHEE,BLOCK 45 SIMS DRIVE,#01-166,380045,"[""establishment"",""health"",""point_of_interest""]",Loh Clinic,"45 Sims Dr, #01-166, Singapore 380045",380045,1.3173739,103.8784108,0.0
108,200352,LOOI SURGERY PTE LTD,BLOCK 102 TOWNER RD.,#01-254,322102,"[""doctor"",""establishment"",""health"",""point_of_interest""]",Looi Surgery Pte. Ltd.,"102 Towner Rd, Singapore 322102",322102,1.3203993,103.8619382,0.0
109,200355,LOW CARDIOLOGY CLINIC- DR LOW LIP PING,3 MOUNT ELIZABETH,#11-05 MT ELIZABETH MEDICAL CTR.,228510,"[""doctor"",""establishment"",""health"",""hospital"",""point_of_interest""]",Low Cardiology Clinic,Singapore 228510,228510,1.304662,103.8356892,0.0
110,200368,MARINE PARADE CLINIC- DR KONG KUM LENG,BLOCK 59 MARINE TERRACE,#01-81,440059,"[""establishment"",""health"",""point_of_interest""]",Marine Parade Clinic,"Marine Terrace, #01-81 Block 59, Singapore 440059",440059,1.3058783,103.9144897,0.0
111,200369,MARSILING CLINIC & SURGERY-DR TONG THEAN SENG,BLOCK 131 MARSILING RISE,#01-186,730131,"[""establishment"",""health"",""point_of_interest""]",Marsiling Clinic & Surgery,"131 Marsiling Rise, Singapore 730131",730131,1.4384989,103.7789724,0.0
112,200373,MEDEN CLINIC & SURGERY- DR FONG CHONG TOO,BLOCK 59 LENGKOK BAHRU,#01-553,150059,"[""establishment"",""health"",""point_of_interest""]",Meden Clinic & Surgery,Singapore,150059,1.2887853,103.8147266,1.0
113,200374,MEDEN CLINIC & SURGERY- DR GOH CHENG CHUAN,BLOCK 35 TELOK BLANGAH RISE,#01-295,090035,"[""establishment"",""health"",""point_of_interest""]",Meden Clinic & Surgery,"35 Telok Blangah Rise, Singapore 090035",090035,1.2729677,103.8218899,0.0
114,200377,THE MEDICAL CTR CLINIC HONG LEONG- DR W F KWOK,#14-05 HONG LEONG BUILDING,16 RAFFLES QUAY,048581,"[""establishment"",""health"",""point_of_interest""]",Medical Centre Clinic The (hong Leong),"16 Raffles Quay, #14-05, Singapore 048581",048581,1.281197,103.851013,0.0
115,200380,MEDICAL & G.E. CLINIC,3 MOUNT ELIZABETH,#13-04 MT ELIZABETH MEDICAL CTR.,228510,"[""establishment"",""health"",""hospital"",""point_of_interest""]",Mount Elizabeth Medical Centre,"3 Mount Elizabeth, Singapore 228510",228510,1.3045666,103.8354606,0.0
116,200387,MEDICAL PRACTICE - DR NG THIN ONN,BLOCK 15 BEACH RD.,#01-4683,190015,"[""establishment"",""health"",""point_of_interest""]",The Medical Practice (Clinic),"Blk 15 Beach Rd, #01-4683, Singapore 190015",190015,1.3035543,103.8646977,0.0
117,200388,MEDICAL SUPPLY & SERVICES INT'L (1996)P/L,339 THOMSON RD.,CLOSED ON WEDNESDAYS PM ONLY,307677,"[""establishment"",""health"",""hospital"",""point_of_interest""]",Thomson Medical Centre,"339 Thomson Rd, Singapore 307677",307677,1.3253292,103.8415012,0.0
118,200391,MEDICO CLINIC & SURGERY- DR CHUA PONG KUAN,BLOCK 249 JURONG EAST ST. 24,#01-88,600249,"[""establishment"",""health"",""point_of_interest""]",Medico Clinic & Surgery,"249 Jurong East St 24, #01-88, Singapore 600249",600249,1.3423192,103.7394938,0.0
119,200393,MEI LING CLINIC,BLOCK 158 MEI LING ST.,#01-80 QUEENSTOWN,140158,"[""establishment"",""health"",""point_of_interest""]",Mei Ling Clinic,"158 Mei Ling St, #01-80, Singapore 140158",140158,1.2927077,103.802897,0.0
120,200395,MENG'S CLINIC - DR CHAN KHYE MENG,BLOCK 47 TANGLIN HALT RD.,,141047,"[""establishment"",""health"",""point_of_interest""]",Meng's Clinic,"47 Tanglin Halt Rd, Singapore 141047",141047,1.3011224,103.7980044,0.0
121,200396,MERIDIAN MEDICAL CTR- DR EUGENE UNG,BLOCK 327 HOUGANG AVENUE 5,#01-162,530327,"[""dentist"",""establishment"",""health"",""point_of_interest""]",Meridian Dental Centre,"327 Hougang Ave 5, Singapore 530327",530327,1.3682592,103.8961781,0.0
122,200401,THE MING CLINIC,1 ORCHARD BOULEVARD #04-01/02,CAMDEN MEDICAL CENTRE,248649,"[""establishment"",""health"",""point_of_interest""]",The Ming,"1 Orchard Blvd, #04-01/02, Singapore 248649",248649,1.3033084,103.8239215,0.0
123,200404,NAIR CARDIAC & MEDICAL CTR- DR V P NAIR,3 MOUNT ELIZABETH,#16-08 MT ELIZABETH MEDICAL CTR.,228510,"[""establishment"",""health"",""hospital"",""point_of_interest""]",Nair Cardiac & Medical Centre,"3 Mt Elizabeth, MT Elizabeth Hospital, Singapore 228510",228510,1.3044494,103.8354081,0.0
124,200406,NAM SENG CLINIC P/L-DR KOH SWEE HAI,144 UPPER BUKIT TIMAH RD.,#01-22 BEAUTY WORLD CTR.,588177,"[""establishment"",""health"",""point_of_interest""]",Nam Seng Clinic,"144 Upper Bukit Timah Road, #01-22 Beauty World Centre, Singapore 588177",588177,1.342051,103.7766077,0.0
125,200417,NEW TOWN CLINIC - DR CHIA KWOK WAH,BLOCK 11 UPPER BOON KENG RD.,#01-929,380011,"[""establishment"",""health"",""point_of_interest""]",New Town Clinic,"11 Upper Boon Keng Rd, #01-929, Singapore 380011",380011,1.3141423,103.870644,0.0
126,200418,NEW TOWN CLINIC P/L-DR TAN GEOK JIM,BLOCK 59 NEW UPPER CHANGI RD.,#01-1224,461059,"[""establishment"",""health"",""point_of_interest""]",New Town Clinic Pte Ltd,"59 New Upper Changi Rd, #01-1224, Singapore 461059",461059,1.3240191,103.9407483,0.0
127,200424,E.C. NG MEDICAL CTR- DR NG ENG CHAN,2 MARNE ROAD,#01-01 STUDIOS@MARNE,208393,"[""establishment"",""health"",""hospital"",""point_of_interest""]",E. C. Ng Medical Centre,"2 Marne Rd, 01, Singapore 208393",208393,1.3126841,103.8571419,0.0
128,200427,S.Y. NG CLINIC - DR NG SENG YUEN,BLOCK 226A ANG MO KIO AVENUE 1,#01-631 (CUSTOMER USE GIRO ONLY),561226,"[""doctor"",""establishment"",""health"",""point_of_interest""]",S Y Ng Clinic,"226A Ang Mo Kio Ave 1, Singapore 561226",561226,1.3675169,103.8393259,0.0
129,200429,SENG'S OG PRACTICE PTE LTD DR SENG SHAY WAY,6 NAPIER RD.,#03-18 GLENEAGLES MEDICAL CENTRE,258499,"[""establishment"",""health"",""point_of_interest""]",Seng's OG Practice,"6 Napier Rd, 03-17/18 Gleneagles Medical Centre, Singapore 258499",258499,1.3075918,103.8199221,0.0
130,200433,MY FAMILY CLINIC(CLEMENTI 325)P/L DR LEE TANG YIN/,BLOCK 325 CLEMENTI AVENUE 5,#01-139,120325,"[""establishment"",""health"",""point_of_interest""]",MY FAMILY CLINIC (CLEMENTI 325),"Clementi Ave 5, #01-139 Block 325, Singapore 120325",120325,1.315245,103.7667562,0.0
131,200434,ONG'S CLINIC - DR ONG CHON-KIN,175 BENCOOLEN ST.,#01-44 BURLINGTON SQUARE,189849,"[""doctor"",""establishment"",""health"",""point_of_interest""]",Ong's Clinic,"175 Bencoolen St, #01-44 Burlington Square, Singapore 189649",189649,1.302126,103.852736,1.0
132,200436,ONG MEDICAL CLINIC- DR RAYMOND ONG THENG SUNG,BLOCK 316B ANG MO KIO ST. 31,#01-10,563316,"[""doctor"",""establishment"",""health"",""point_of_interest""]",Ong Theng Sung Dr,"HDB Ang Mo Kio (MSCP) #01-10, 316B Ang Mo Kio Street 31 (S)563316, Singapore 563316",563316,1.3646696,103.8476215,0.0
133,200450,ORTHOPAEDIC ASSOCIATES-DR TOH CHOON LAI,3 MOUNT ELIZABETH,#16-03/04 MOUNT ELIZABETH MEDICAL CENTRE,228510,"[""doctor"",""establishment"",""health"",""point_of_interest""]",Dr. Toh Choon Lai,"3 Mount Elizabeth, #16-03/04, Mount Elizabeth Medical Center, Singapore 228510",228510,1.304662,103.8356892,0.0
134,200462,PAN-ISLAND CLINIC SURGERY- DR TAN SOO LIANG,BLOCK 632 BEDOK RESERVOIR RD.,#01-804,470632,"[""establishment"",""health"",""point_of_interest""]",Pan Island Clinic & Surgery,"632 Bedok Reservoir Rd, #01-804, Singapore 470632",470632,1.3324798,103.9142804,0.0
135,200463,PAN ISLAND MEDICAL GROUP- DR CHUA SUI MENG,101 THOMSON RD.,#01-17 UNITED SQUARE,307591,"[""establishment"",""health"",""point_of_interest""]",Pan Island Clinic & Surgery,"632 Bedok Reservoir Rd, #01-804, Singapore 470632",470632,1.3324798,103.9142804,1.0
136,200464,PARIQUA CLINIC- DR JUDY CHEN PEI SIANG,BLOCK 47 BENDEMEER RD.,#01-1463,330047,"[""establishment"",""health"",""point_of_interest""]",Pariqua Clinic,"#01, 47 Bendemeer Rd, 1463, Singapore 330047",330047,1.3231105,103.8666576,0.0
137,200476,THE PEOPLE'S CLINIC-DR PHAN OI PENG,BLOCK 145 TECK WHYE AVENUE,#01-161,680145,"[""establishment"",""health"",""point_of_interest""]",The People's Clinic,"145 Teck Whye Ave, Singapore 680145",680145,1.3811552,103.7523337,0.0
138,200478,FRONTIER PEOPLE'S CLINIC PTE LTD,BLOCK 123 BEDOK NORTH ST. 2,#01-152,460123,"[""doctor"",""establishment"",""health"",""point_of_interest""]",Frontier People's Clinic,"123 Bedok North Street 2, #01-152, Singapore 460123",460123,1.3292647,103.9372849,0.0
139,200482,PHOON CLINIC & SURGERY- DR PHOON CHIONG FOOK,BLOCK 632 BEDOK RESERVOIR RD.,#01-828,470632,"[""establishment"",""health"",""point_of_interest""]",Phoon Clinic & Surgery,"632 Bedok Reservoir Rd, Singapore 470632",470632,1.3322187,103.9144845,0.0
140,200483,PING'S CLINIC & SURGERY- KWAK PING LAM,BLOCK 555 ANG MO KIO AVENUE 10,#01-1974,560555,"[""establishment"",""health"",""point_of_interest""]",Ping's Clinic & Surgery,"555 Ang Mo Kio Ave 10, Singapore 560555",560555,1.3710907,103.8571036,0.0
141,200487,SKIN CLINIC- DR JENNIFER FOO,3 MOUNT ELIZABETH,#07-06 MOUNT ELIZABETH MEDICAL CENTRE,228510,"[""doctor"",""establishment"",""health"",""point_of_interest""]",Plastic Surgery & Skin Clinic,"Mount Elizabeth Medical Centre #07-06, 3 Mount Elizabeth (S)228510, Singapore 228510",228510,1.3044259,103.835166,0.0
142,200495,RAFFLES MEDICAL GROUP LTD,585 NORTH BRIDGE RD.,LEVEL 7,188770,"[""establishment"",""health"",""point_of_interest""]",Raffles Nuclear Medicine Centre,"585 North Bridge Rd, Level 1 Raffles Hospital, Singapore 188770",188770,1.301145,103.857321,0.0
143,200502,RESERVOIR RD CLINIC & SURGERY- DR GAN KIM LOON,BLOCK 704 BEDOK RESERVOIR RD.,#01-3622,470704,"[""establishment"",""health"",""point_of_interest""]",Reservoir Clinic & Surgery,"HDB Bedok #01-3622, 704 Bedok Reservoir Road (S)470704, Singapore",470704,1.3366035,103.9205165,1.0
144,200503,ROCHORE CTR CLINIC- DR MARY WEE JOO LING,175 BENCOOLEN STREET,#01-20 BURLINGTON SQUARE,189649,"[""establishment"",""health"",""point_of_interest""]",Rochor Centre Clinic,"BURLINGTON SQUARE175 #01-20, Bencoolen St, Singapore 189649",189649,1.3019804,103.8526956,0.0
145,200504,ROCHOR MEDICAL CTR - DR GEORGE KHOO,BLK 635 VEERASAMY ROAD,#01-156,200635,"[""dentist"",""establishment"",""health"",""point_of_interest""]",Rochor Centre Dental Surgery,"635 Veerasamy Rd, #01-156, Singapore 200635",200635,1.3066478,103.85535,0.0
146,200519,HEALTHWAY MEDICAL CLINIC,144 ROBINSON ROAD,#01-02/03 ROBINSON SQUARE,068908,"[""establishment"",""health"",""point_of_interest""]",Healthway Medical Centre,"#01-02/03 S, 144 Robinson Rd, Robinson Square, Singapore 068908",068908,1.278191,103.8480799,0.0
147,200524,SHENTON CLINIC - DR TAN KOK ENG,BLOCK 498 JURONG WEST ST. 41,#01-464,640498,"[""establishment"",""health"",""point_of_interest""]",Shenton Clinic,"498 Jurong West Street 41, Singapore 640498",640498,1.3485772,103.724456,0.0
148,200533,LA CLINIC PTE LTD,290 ORCHARD RD.,#08-01/02 PARAGON,238859,"[""establishment"",""health"",""point_of_interest""]",La Clinic,"290 Orchard Road, #08-01/02 Paragon Medical Centre, Singapore 238859",238859,1.303609,103.8364844,0.0
149,200534,SINGAPURA CLINIC - DR LEE KENG THON,27 BENCOOLEN ST.,#01-27,189620,"[""establishment"",""health"",""point_of_interest""]",Singapura Clinic,"27 Bencoolen St, Singapore 189620",189620,1.2987391,103.8498841,0.0
150,200552,SUWANDI-KO SURGERY- DR SU WAN DI-KO,3 MOUNT ELIZABETH,#10-14 MOUNT ELIZABETH MEDICAL CENTRE,228510,"[""establishment"",""health"",""point_of_interest""]",Suwandi Ko Surgery,"14 Mount Elizabeth, Singapore 228510",228510,1.3055915,103.8354837,0.0
151,200557,TAMPINES CLINIC & SURGERY P/L-DR ANG EE LEONG,BLOCK 139 TAMPINES ST. 11,#01-10,521139,"[""establishment"",""health"",""point_of_interest""]",Tampines Clinic And Surgery Pte Ltd,"139 Tampines St. 11, Singapore 521139",521139,1.3464863,103.9448188,0.0
152,200558,TAMPINES MEDICAL CTR- DR SIM SENG CHYE,BLOCK 267 TAMPINES ST. 21,#01-41,520267,"[""establishment"",""health"",""point_of_interest""]",Tampines Medical Centre,"267 Tampines Street 21, #01-41, Singapore 520267",520267,1.350776,103.9489626,0.0
153,200560,TAN CHUE TIN CLINIC P/L- DR TAN CHUE TIN,3 MOUNT ELIZABETH,#14-04 MOUNT ELIZABETH MEDICAL CENTRE,238859,"[""establishment"",""health"",""point_of_interest""]",Tan Chue Tin Clinic Pte. Ltd.,"290 Orchard Rd, #09-07 The Paragon, Singapore 238859",238859,1.30451,103.836184,0.0
154,200561,TAN CLINIC - DR TAN KIAT PIAH,BLOCK 345 CLEMENTI AVENUE 5,#01-94,120345,"[""establishment"",""health"",""point_of_interest""]",Tan Clinic,"345 Clementi Ave 5, Singapore 120345",120345,1.3176253,103.7689814,0.0
155,200569,DRS TANG & PARTNERS- DR KAM SHYAN CHIN,BLOCK 64 YUNG KUANG RD.,#01-115,610064,"[""establishment"",""health"",""point_of_interest""]",Drs Tang & Partners Pte. Ltd.,"BLK 64, #01-115 Singapore 610064 Yung Kuang Rd, Singapore 610064",610064,1.3323061,103.7223302,0.0
156,200573,TANGLIN MEDICAL CLINIC,19 TANGLIN RD.,#06-16/17 TANGLIN SHOPPING CTR.,247909,"[""establishment"",""health"",""point_of_interest""]",Tanglin Medical Clinic,"19 Tanglin Rd, #06-16, Tanglin Shopping Centre, Singapore 247909",247909,1.3065255,103.8270111,0.0
157,200575,H K TAN SURGERY,3 MOUNT ELIZABETH,#15-02 MOUNT ELIZABETH MEDICAL CENTRE,228510,"[""establishment"",""health"",""point_of_interest""]",H K Tan Surgery Pte Ltd,"3 Mount Elizabeth, Singapore 228510",228510,1.3050549,103.8354392,0.0
158,200580,TAN MEDICAL CLINIC P/L- DR TAN YONG TECK,BLOCK 339 ANG MO KIO AVENUE 1,#01-1583,560339,"[""establishment"",""health"",""point_of_interest""]",Tan Medical Clinic Pte Ltd,"339 Ang Mo Kio Ave 1, Singapore 560339",560339,1.365232,103.8491328,0.0
159,200581,TAN MEDICARE CLINIC- DR TAN YONG TONG,BLOCK 629 ANG MO KIO AVENUE 4,#01-986,560629,"[""doctor"",""establishment"",""health"",""point_of_interest""]",Tan Medicare Clinic Pte Ltd,"629 Ang Mo Kio Ave 4, #01-986, Singapore 560629",560629,1.3805702,103.8406548,0.0
160,200584,FAMILY DOCTORS AT 365-DR LEE PHENG S/DR LEE CHUN F,BLOCK 365 CORPORATION DRIVE,#01-407,610365,"[""establishment"",""health"",""point_of_interest""]",Family Doctors at 365,"365 Corporation Dr, #01-407, Singapore 610365",610365,1.3377462,103.7202848,0.0
161,200588,K.L. TAY CLINIC & SURGERY- DR TAY KOK LING,BLOCK 632 BEDOK RESERVOIR RD.,#01-822,470632,"[""doctor"",""establishment"",""health"",""point_of_interest""]",K L Tay Clinic & Surgery,"632 Bedok Reservoir Rd, Singapore 470632",470632,1.3322474,103.9146964,0.0
162,200589,TAY MEDICAL CTR- DR TONY TAY KIM TENG,BLOCK 6 HOLLAND CLOSE,#01-28,271006,"[""establishment"",""health"",""hospital"",""point_of_interest""]",Tay Medical Centre The,"6 Holland Cl, Singapore 271006",271006,1.307145,103.795477,0.0
163,200590,TEBAN GARDEN CLINIC-DR CHEW PIN KEE,BLOCK 61 TEBAN GARDEN RD.,#01-01 TEBAN PLACE,600061,"[""establishment"",""health"",""point_of_interest""]",Teban Garden Clinic,"61 Teban Gardens Rd, #01-01, Singapore 600061",600061,1.3220863,103.7385032,0.0
164,200594,TEK DISPENSARY - DR GOH KONG TEK,BLOCK 4 LORONG 7 TOA PAYOH,#01-115,310004,"[""establishment"",""health"",""point_of_interest""]",Tek Dispensary,"4 Lor 7 Toa Payoh, Singapore 310004",310004,1.3390696,103.8555497,0.0
165,200598,TENG CLINIC - DR SIAH KIM BIN,BLOCK 171 STIRLING RD.,#01-1101,140171,"[""establishment"",""health"",""point_of_interest""]",Teng Clinic,"171 Stirling Rd, #01-1101, Singapore 140171",140171,1.2909855,103.8037994,0.0
166,200601,TEO CLINIC & SURGERY - DR T K TEO,BLOCK 352 CLEMENTI AVENUE 2,#01-111,120352,"[""establishment"",""health"",""point_of_interest""]",Teo Clinic & Surgery,"352 Clementi Ave 2, Singapore 120352",120352,1.3148196,103.7716088,0.0
167,200613,THEAN CLINIC - DR DON LAU VI HOK,BLOCK 38 BEO CRESCENT,#01-32,160038,"[""establishment"",""health"",""point_of_interest""]",Thean Clinic Pte Ltd,"38 Beo Cres, Singapore 160038",160038,1.2884401,103.8274989,0.0
168,200616,DRS THOMPSON & THOMSON(RADLINK MEDICARE)P/L,24 RAFFLES PLACE,#02-08 CLIFFORD CTR.,048621,"[""establishment"",""health"",""point_of_interest""]",Drs Thompson & Thomson (RadLink Medicare),"24 Raffles Place, #02-08 Clifford Centre, Singapore 048621",048621,1.2838533,103.8519697,0.0
169,200630,HAEM-ONC CLINIC PTE LTD,3 MOUNT ELIZABETH,#13-09/10 MOUNT ELIZABETH MEDICAL CENTRE,228510,"[""establishment"",""health"",""point_of_interest""]",Haematology Oncology Clinic Pte Ltd,"3 Mount Elizabeth, #13-09/10 Medical Centre, Singapore 228510",228510,1.3057189,103.8357928,0.0
170,200631,CHARLES TOH CLINIC- DR TOH CHAI SOON CHARLES,3 MOUNT ELIZABETH,#06-01/02 MT ELIZABETH MEDICAL CTR.,228510,"[""establishment"",""health"",""hospital"",""point_of_interest""]",Mount Elizabeth Medical Centre,"3 Mount Elizabeth, Singapore 228510",228510,1.3045666,103.8354606,0.0
171,200635,TOWN CLINIC- DR CHRISTINE KHOO YIOK BIN,287 BEACH RD.,#01-00,199551,"[""establishment"",""health"",""point_of_interest""]",Town Clinic,"287 Beach Rd, #01-00, Singapore 199551",199551,1.3009062,103.8604883,0.0
172,200638,THE TOW YUNG CLINIC- DR LIM TECK CHYE,19 TANGLIN RD.,#05-01 TANGLIN SHOPPING CTR.,247909,"[""doctor"",""establishment"",""health"",""point_of_interest""]",The Tow yung Clinic,"19 Tanglin Rd, 05-01/03, Singapore 247909",247909,1.306364,103.827018,0.0
173,200642,DRS TRYTHALL HOY DAVIES PL-DR CATHERINE NG,391B ORCHARD RD.,#25-07 NGEE ANN CITY TOWER B,238874,"[""establishment"",""health"",""point_of_interest""]",Fullerton Health Screening Centre (NAC26) @ Ngee Ann City,"391B Orchard Road #26-02 Ngee Ann City Tower B, Singapore 238874",238874,1.3027623,103.8342901,0.0
174,200644,UNION CLINIC & SURGERY- DR QUEK CHEE GUAN,BLOCK 722 CLEMENTI WEST ST. 2,#01-168,120722,"[""establishment"",""health"",""point_of_interest""]",Union Clinic & Surgery,"722 Clementi West Street 2, #01-168, Singapore 120722",120722,1.3029164,103.7639627,0.0
175,200647,UNITED CLINIC,35 SELEGIE RD.,#05-06 PARKLANE SHOPPING MALL,188307,"[""establishment"",""health"",""point_of_interest""]",United Clinic,"35 Selegie Rd, #05-06 Parklane Mall, Singapore 188307",188307,1.3018851,103.8484279,0.0
176,200650,UNITED MEDICAL PRACTITIONERS P/L-DR CHOONG SHE,BLOCK 139 TAMPINES ST. 11,#01-16,521139,"[""establishment"",""health"",""point_of_interest""]",United Medical Practitioners Pte Ltd,"139 Tampines St. 11, Singapore 521139",521139,1.3466145,103.9447552,0.0
177,200653,NUS-UNIVERSITY HEALTH CTR. (UHC),UNIVERSITY HEALTH CENTRE (UHC),LEVEL 1,119080,"[""establishment"",""health"",""point_of_interest""]",University Health Centre,"20 Lower Kent Ridge Rd, Singapore 119080",119080,1.2991034,103.7763985,0.0
178,200655,VERNON CLINIC & SURGERY- DR CHIA KIAT SWAN,100 JALAN SULTAN,02-25/26 SULTAN PLAZA,199001,"[""establishment"",""health"",""point_of_interest""]",Vernon Clinic & Surgery,"100 Jln Sultan, Singapore 199001",199001,1.302832,103.861969,0.0
179,200656,VICTORY CLINIC & SURGERY- DR WILLIAM KHOO C L,21 GHIM MOH RD.,#01-205,270021,"[""establishment"",""health"",""point_of_interest""]",Victory Clinic & Surgery,"Blk 21 Ghim Moh Rd, #01-205, Singapore 270021",270021,1.3106477,103.7884371,0.0
180,200657,E.L. CHIN FAMILY CLINIC & SURGERY- DR CHIN EN LOY,BLOCK 432 CLEMENTI AVENUE 3,#01-272,120445,"[""establishment"",""health"",""point_of_interest""]",E. L. Chin Family Clinic and Surgery Pte Ltd,"432 #01-272 Clementi Ave 3, Singapore 120432",120432,1.3141137,103.7624256,1.0
181,200659,DRS WEE & OH- DR ALBERT WEE SOON TECK,3 MOUNT ELIZABETH,#07-01 MOUNT ELIZABETH MEDICAL CENTRE,228510,"[""establishment"",""health"",""hospital"",""point_of_interest""]",Mount Elizabeth Medical Centre,"3 Mount Elizabeth, Singapore 228510",228510,1.3045666,103.8354606,0.0
182,200660,WEE'S CLINIC & SURGERY- DR WEE TEONG BOO,BLOCK 418 BEDOK NORTH AVENUE 2,#01-79,460418,"[""establishment"",""health"",""point_of_interest""]",Wee's Clinic & Surgery,"418 Bedok North Ave 2, Singapore 460418",460418,1.3285954,103.930027,0.0
183,200661,WEE HEALTHFIRST MEDICAL CLINIC DR SEOW YU JIN,BLOCK 378 CLEMENTI AVENUE 5,#01-342,120378,"[""establishment"",""health"",""point_of_interest""]",Wee HealthFirst Medical Clinic,"378 Clementi Ave 5, Singapore 120378",120378,1.3177696,103.767459,0.0
184,200668,WHAMPOA CLINIC - DR ANG YIAN HUA,BLOCK 88 WHAMPOA DRIVE,#01-863,320088,"[""establishment"",""health"",""point_of_interest""]",Whampoa Clinic,"Blk 88 Whampoa Drive, #01-863 Whampoa Makan Plac, Singapore, Singapore 327718",327718,1.3230413,103.8551629,1.0
185,200669,WILMER CLINIC P/L- DR BRIAN HENG BOON LIAT,MT ELIZABETH ENT. CLINIC,"50 ARMENIAN STREET, #01-01 WILMER PLACE",179938,"[""establishment"",""health"",""point_of_interest""]",Wilmer Clinic,"Wilmer Place #01-00, 50 Armenian Street (S)179938, Singapore 179938",179938,1.2943585,103.8496597,0.0
186,200670,WINSTEDT CLINIC - DR S L SARMA,51 UPPER WELD RD.,LITTLE INDIA,207408,"[""establishment"",""health"",""point_of_interest""]",Winstedt Clinic,"51 Upper Weld Rd, Singapore 207408",207408,1.3062913,103.8532611,0.0
187,200674,WONG CLINIC - DR WONG TECK BOON,BLOCK 539 BEDOK NORTH ST. 3,#01-603,460539,"[""establishment"",""health"",""point_of_interest""]",Wong Clinic,"539 Bedok North Street 3, #01-603, Singapore 460539",460539,1.3313585,103.9251116,0.0
188,200689,WOODLANDS CLINIC - DR GABRIEL SEOW,BLOCK 131 MARSILING RISE,#01-204,730131,"[""establishment"",""health"",""point_of_interest""]",Woodlands Clinic,"01-204, 131 Marsiling Rise, Singapore 730131",730131,1.438494,103.778403,0.0
189,200698,YANG & YAP CLINIC & SURGERY PTE LTD,BLOCK 537 BEDOK NORTH ST. 3,#01-571,460537,"[""beauty_salon"",""establishment"",""hair_care"",""health"",""hospital"",""point_of_interest""]",Yang & Yap Clinic,"Block 537 Bedok North Street 3, #01-571, Singapore 460537",460537,1.3320819,103.9240161,0.0
190,200706,YIM CLINIC & SURGERY- DR YIM SOW TUCK,BLK 11A BOON TIONG ROAD,#02-03/04,161011,"[""doctor"",""establishment"",""health"",""hospital"",""point_of_interest""]",Yim Clinic & Surgery,"Blk11A Boon Tiong Road #02-03, Singapore 161011",161011,1.2860618,103.8286238,0.0
191,200712,OG CLINIC FOR WOMEN,3 MOUNT ELIZABETH,#09-08 MOUNT ELIZABETH MEDICAL CENTRE,228510,"[""establishment"",""health"",""point_of_interest""]",Og Clinic For Women Pte Ltd,"3 Mount Elizabeth, #09-06, Singapore 228510",228510,1.3050493,103.8354284,0.0
192,200713,"DRS OH, LIM, WONG & PARTNERS- DR WONG KAI CHEONG",BLOCK 959 JURONG WEST ST. 92,#01-154,640959,"[""establishment"",""health"",""point_of_interest""]","Drs Oh,Lim,Wong & partners","959 Jurong West Street 92, Singapore 640959",640959,1.3414789,103.6908135,0.0
193,200715,TAN-TEOH CLINIC/SURGERY-DR TAN C L/DR TEOH S H,BLOCK 101 TOWNER RD.,#01-216,322101,"[""establishment"",""health"",""point_of_interest""]",Tan Teoh Clinic & Surgery,"101 Towner Road, #01-216 S(322101), Singapore",322101,1.3192982,103.8609087,1.0
194,200727,CHARLES M P LIM CLINIC & SURGERY FOR WOMEN P/L,3 MOUNT ELIZABETH,#13-02 MT ELIZABETH MEDICAL CTR.,228510,"[""establishment"",""health"",""point_of_interest""]",Charles M P Lim Clinic & Surgery For Women,"3 Mount Elizabeth, #13-02 Medical Center, Singapore 228510",228510,1.3055915,103.8354837,0.0
195,200738,ISLAND GROUP CLINIC,19 TANGLIN RD.,#06-34 TO 37 TANGLIN SHOPPING CENTRE,247909,"[""establishment"",""health"",""point_of_interest""]",Island Group Clinic,"19 Tanglin Rd, Singapore 247909",247909,1.306367,103.8268523,0.0
196,200749,COMFORT CLINIC & SURGERY,BLOCK 214 SERANGOON AVENUE 4,#01-100 (ALL ORDERS USE CORP-C ONLY),550214,"[""establishment"",""health"",""point_of_interest""]",Comfort Clinic & Surgery,"214 Serangoon Ave 4, Singapore 550214",550214,1.3574815,103.8735837,0.0
197,200774,LOW & LEE CLINIC & SURGERY- DR LEE GEOK CHOO,BLOCK 55 CHAI CHEE DRIVE,#01-202,460055,"[""doctor"",""establishment"",""health"",""point_of_interest""]",Low & Lee Clinic & Surgery,"55 Chai Chee Dr, unit #01-202, Singapore 460055",460055,1.327334,103.9191493,0.0
198,200775,EMMANUEL MEDICAL CLINIC,BLOCK 272 TAMPINES ST 22,#01-26,520272,"[""establishment"",""health"",""point_of_interest""]",Emmanuel Medical Clinic,"272 Tampines Street 22, Singapore 520272",520272,1.3490705,103.950023,0.0
199,200777,S.S. TAN MEDICAL CLINIC- DR TAN SHING SAN,BLOCK 744 YISHUN AVE 5 ST 72,#01-195,760744,"[""establishment"",""health"",""point_of_interest""]",S S Tan Medical Clinic,"744 Yishun Street 72, Singapore 760744",760744,1.4293581,103.8340571,0.0
200,200778,TOWN HALL CLINIC P/L- DR JULIAN PNG,456 ALEXANDRA RD.,#02-01 NOL BUILDING,119976,"[""establishment"",""health"",""point_of_interest""]",Town Hall Clinic Pte Ltd,"438C Alexandra Rd, #01-01 The Hub, Alexandra Technopark, Singapore 119976",119976,1.2773213,103.7994935,0.0
201,200784,ADAM RD MEDICAL CTR-DR FRANCIS NGUI Y C/ DR F.NGUI,559 BUKIT TIMAH RD.,#01-02 KING'S ARCADE,269695,"[""establishment"",""point_of_interest"",""shopping_mall""]",King's Arcade Shopping Centre,"559 Bukit Timah Rd, Singapore 269695",269695,1.3233285,103.8108037,1.0
202,200787,TECK GHEE CLINIC - DR KOH GIN POH,BLOCK 451 ANG MO KIO AVENUE 10,#01-1765,560451,"[""establishment"",""health"",""point_of_interest""]",Teck Ghee Clinic,"451 Ang Mo Kio Ave 10, Singapore 560451",560451,1.3688155,103.8556374,0.0
203,200793,TEKKA CLINIC SURGERY- DR HARIDASS RAMDASS,BLOCK 668 CHANDER RD.,#02-06 OFF SERANGOON/KERBAU ROAD,210668,"[""establishment"",""health"",""point_of_interest""]",Tekka Clinic-Surgery,"668 Chander Rd, Singapore 210668",210668,1.3076687,103.8512472,0.0
204,200795,DR CHAN PENG MUN CLINIC & SURGERY-DR CHAN PENG MUN,5 KOEK RD.,#01-23 CUPPAGE PLAZA,238796,"[""establishment"",""health"",""point_of_interest""]",Chan Peng Mun Dr Clinic & Surgery,"5 Koek Rd, #01-21, Singapore 228796",228796,1.3024213,103.839922,1.0
205,200798,LEE CLINIC - DR LEE CHON SHAM,2 SAINT GEORGE'S RD.,,328023,"[""street_address""]",2 St George's Rd,"2 St George's Rd, Singapore 322002",322002,1.3234271,103.8607685,1.4142135
206,200800,MAO MEDICAL CTR & SURGERY P/L-DR MAO FONG HAO,BLOCK 149 SILAT AVENUE,#01-54,160149,"[""establishment"",""health"",""hospital"",""point_of_interest""]",Mao Medical Centre & Surgery,"149 Silat Ave, Singapore 160149",160149,1.2772801,103.8318854,0.0
207,200803,ORCHARD GROUP CLINIC- DR TAN CHIN LOCK,545 ORCHARD RD.,#12-04 FAR EAST SHOPPING CTR.,238882,"[""establishment"",""health"",""point_of_interest""]",Orchard Group Clinic,"545 Orchard Rd, Singapore 238882",238882,1.3055779,103.830139,0.0
208,200807,S.K. TAY CLINIC & SURGERY- DR TAY SOI KHENG,BLOCK 827 TAMPINES ST. 81,ALONG AVENUE 3 #01-140,520827,"[""establishment"",""health"",""point_of_interest""]",S K Tay Clinic & Surgery,"827 Tampines Street 81, Singapore 520827",520827,1.3497035,103.9337061,0.0
209,200811,Y T LIM CLINIC - DR LIM YONG TEENG,BLOCK 201B TAMPINES ST. 21,#01-1067,522201,"[""establishment"",""health"",""point_of_interest""]",Y T Lim Clinic & Surgery,"201B Tampines Street 21, Singapore 522201",522201,1.353532,103.9528688,0.0
210,200829,HOUGANG CLINIC - DR CHUA CHONG LI,BLOCK 631 HOUGANG AVENUE 8,#01-16,530631,"[""doctor"",""establishment"",""health"",""point_of_interest""]",Hougang Clinic,"631 Hougang Ave 8, #01-16, Singapore 530631",530631,1.3707439,103.8813755,0.0
211,200840,UNION MEDICAL CLINIC & SURGERY- DR BETTY KOH M N,BLOCK 152 SERANGOON NORTH AVE 1,#01-330,550152,"[""establishment"",""health"",""point_of_interest""]",Union Medical Clinic & Surgery,"152 Serangoon North Ave 1, Singapore 550152",550152,1.3693403,103.8724331,0.0
212,200842,TAN & YIK CLINIC & SURGERY- DR TAN GEE HWA,BLOCK 116 BISHAN ST. 12,#01-36,570116,"[""establishment"",""health"",""point_of_interest""]",Tan & Yik Clinic & Surgery,"116 Bishan Street 12, #01-36, Singapore 570116",570116,1.347648,103.8494606,0.0
213,200843,GORDON LIM CLINIC & SURG FOR WOMEN P/L,6 NAPIER RD.,#03-06 GLENEAGLES MEDICAL CENTRE,258499,"[""establishment"",""health"",""point_of_interest""]",Gordon Lim Clinic & Surgery for Women,"6 Napier Road, #10-07 Gleneagles Medical Centre, Singapore 258499",258499,1.3073339,103.8195892,0.0
214,200844,YISHUN MEDICAL CTR.,BLOCK 618 YISHUN RING RD.,#01-3234,760618,"[""establishment"",""health"",""point_of_interest""]",Yishun Medical Centre,"618 Yishun Ring Rd, Block 618, Singapore 760618",760618,1.4187779,103.8355276,0.0
215,200848,PAUL W NGUI PTE LTD C/O NGUI PSYCHIATRY ASSOCIATES,101 IRRAWADDY ROAD,#15-07 ROYAL SQUARE AT NOVENA,329565,"[""establishment"",""health"",""point_of_interest""]",Paul W Ngui Pte Ltd,"101 Irrawaddy Road #15-07 Royal Square Medical Suites Royal Square at, Singapore 329565",329565,1.3206053,103.8432372,0.0
216,200853,CHUA MEDICAL CTR P/L- DR CHUA TEO NGEE,BLOCK 248 SIMEI ST. 3,#01-134,520248,"[""doctor"",""establishment"",""health"",""point_of_interest""]",Chua Medical Centre,"248 Simei Street 3, #01-134, Singapore 520248",520248,1.3437924,103.9532029,0.0
217,200854,TRINITY HEALTHCARE GROUP P/L-DR LIM Y K/DR CHIN C,BLOCK 130 JURONG EAST ST. 13,#02-205,600130,"[""dentist"",""establishment"",""health"",""point_of_interest""]",Trinity Medical Clinic and Dental Surgery,"Blk, 130 Jurong Gateway Rd, #02-205/207, Singapore 600130",600130,1.3351189,103.7393198,0.0
218,200856,HONG FAMILY CLINIC- DR HONG LEE TIONG,BLOCK 282 TAMPINES ST. 22,#01-300,520282,"[""establishment"",""health"",""point_of_interest""]",Hong Family Clinic,"282 Tampines Street 22, #01-300, Singapore 520282",520282,1.3478115,103.9520809,0.0
219,200863,MARY MEDICAL CLINIC & SURGERY-DR MARY YAO WAN HWA,BLOCK 252 JURONG EAST ST. 24,#01-157,600252,"[""establishment"",""health"",""point_of_interest""]",Mary Medical Clinic & Surgery,"252 Jurong East St 24, #01-157, Singapore 600252",600252,1.3429325,103.737924,0.0
220,200865,THE PSYCHIATRIC & BEHAVIOURAL MEDICINE CL-DR ANG P,3 MOUNT ELIZABETH,#15-08 MT ELIZABETH MEDICAL CTR.,228510,"[""establishment"",""health"",""point_of_interest""]",The Psychiatric & Behavioural Medicine Clinic,"3 Mount Elizabeth, Singapore 228510",228510,1.3050549,103.8354392,0.0
221,200874,BERNARD EE MEDICAL CTR P/L- C/O BERNARD EE CARDIAC,6 NAPIER RD.,#03-05 GLENEAGLES MEDICAL CTR.,258499,"[""establishment"",""health"",""point_of_interest""]",Bernard Ee Medical Centre Pte Ltd,"6 Napier Rd, Singapore 258499",258499,1.3077263,103.8200865,0.0
222,200876,CLINIC CP LIM PTE LTD,319 JOO CHIAT PLACE,#04-02 PARKWAY EAST MEDICAL CENTRE,427989,"[""establishment"",""health"",""point_of_interest""]",Clinic C P Lim Pte Ltd,"319 Joo Chiat Pl, #02-05, Singapore 427989",427989,1.3151254,103.9088708,0.0
223,200877,THE CARDIO CLINIC PTE LTD C/O BALDEV & ONG THE CAR,319 JOO CHIAT PLACE,#02-02 PARKWAY EAST MEDICAL CTR.,427989,"[""establishment"",""health"",""hospital"",""point_of_interest""]",Baldev Singh Cardiology Clinic Pte Ltd,"319 Joo Chiat Pl, #02-02, Singapore 427989",427989,1.3151254,103.9088708,0.0
224,200881,GOODHEALTH MEDICAL CTR- DR TAN LEAN BENG,BLOCK 644 HOUGANG AVENUE 8,#01-275,530644,"[""doctor"",""establishment"",""health"",""point_of_interest""]",Good Health Medical Centre,"644 Hougang Ave 8, Singapore 530644",530644,1.3714935,103.8812599,0.0
225,200886,NEIGHBOURHOOD CLINIC- DR LIM YU HER,BLOCK 260 BANGKIT RD.,#01-13 BUKIT PANJANG NEIGHBOURHOOD CTR,670260,"[""establishment"",""health"",""point_of_interest""]",Neighbourhood Clinic,"260 Bangkit Rd, Singapore 670260",670260,1.3779546,103.7733401,0.0
226,200887,THE BONHAM CLINIC P/L-DR DAVID EU,100 PECK SEAH STREET,#11-16/17,079333,"[""establishment"",""health"",""point_of_interest""]",The Bonham Clinic,"100 Peck Seah St, #11-16, Singapore 079333",079333,1.2757712,103.8444017,0.0
227,200891,STREET 21 CLINIC TAMPINES PTE LTD DR GAN TEK KAH,BLOCK 201B TAMPINES ST. 21,#02-1097,522201,"[""establishment"",""health"",""point_of_interest""]",Street 21 Clinic (Tampines),"201B Tampines Street 21, #02-1097, Singapore 522201",522201,1.353532,103.9528688,0.0
228,200892,S C WONG SURGERY P/L- DR WONG SEN CHOW,#02-03 BLOCK A,MOUNT ALVERNIA MEDICAL CENTRE,574623,"[""establishment"",""health"",""point_of_interest""]",S C Wong Surgery Pte Ltd,"820 Thomson Rd, Singapore 574623",574623,1.341499,103.837625,0.0
229,200903,NEO CLINIC & SURGERY- DR NEO ENG KIONG,BLOCK 257 BANGKIT RD.,#01-45,670257,"[""establishment"",""health"",""point_of_interest""]",Neo Clinic & Surgery,"257 Bangkit Rd, Singapore 670257",670257,1.378542,103.7727522,0.0
230,200906,DOLLY WEE CLINIC & SURGERY FOR WOMEN P/L,3 MOUNT ELIZABETH,#04-08 MOUNT ELIZABETH MEDICAL CENTRE,228510,"[""establishment"",""health"",""hospital"",""point_of_interest""]",Mount Elizabeth Medical Centre,"3 Mount Elizabeth, Singapore 228510",228510,1.3045666,103.8354606,0.0
231,200910,RICHARD CHEW SURGERY- DR RICHARD CHEW KIM HUAT,3 MOUNT ELIZABETH,#16-09 MT ELIZABETH MEDICAL CTR.,228510,"[""doctor"",""establishment"",""health"",""point_of_interest""]",Richard Chew Surgery,"3 Mount Elizabeth, Singapore 228510",228510,1.3055915,103.8354837,0.0
232,200916,NEIGHBOURHOOD MEDICAL CLINIC P/L-DR TAN HENG,BLOCK 683 HOUGANG AVENUE 8,#01-901,530683,"[""establishment"",""health"",""point_of_interest""]",Neighbourhood Medical Clinic,"683 Hougang Ave 8, #01-901, Singapore 530683",530683,1.3738143,103.8862454,0.0
233,200920,LIFELINE YISHUN RING MEDICAL CLINIC P/L,BLOCK 846 YISHUN RING RD.,#01-3615,760846,"[""establishment"",""health"",""point_of_interest""]",Lifeline Yishun Ring Medical Clinic,"846 Yishun Ring Rd, Singapore 760846",760846,1.4173202,103.834656,0.0
234,200924,YONG CLINIC & SURGERY- DR YONG CHEE FAH,BLOCK 632 YISHUN ST. 61,#01-06,760632,"[""establishment"",""health"",""point_of_interest""]",Yong Clinic & Surgery,"Yishun Street 61, #01-06 Block 632, Singapore 760632",760632,1.4187291,103.8392323,0.0
235,200926,YEO SEEM HUAT PSYCHIATRIC CLINIC P/L,290 ORCHARD RD.,#06-10 PARAGON,238859,"[""establishment"",""health"",""hospital"",""point_of_interest""]",Yeo Seem Huat Psychiatric Clinic,"290 Orchard Rd, Singapore 238859",238859,1.3040089,103.8356082,0.0
236,200935,THE MEDICAL CLINIC P/L-DR TAY KEW WEI,63 CHULIA ST.,#01-02 OCBC CTR. EAST,049514,"[""doctor"",""establishment"",""health"",""point_of_interest""]",+HE MEDICAL CLINIC,"63 Chulia St, #01-02, Singapore 049514",049514,1.2847189,103.8497316,0.0
237,200941,NEOH & ONG MEDICAL CLINIC- DR LINDA NEOH,BLOCK 2A EUNOS CRESCENT,#01-2447,401002,"[""establishment"",""health"",""point_of_interest""]",Neoh and Ong Medical Clinic,"2A Eunos Cres, Singapore 401002",401002,1.3201978,103.9032317,0.0
238,200947,TOYU MEDICAL CTR -DR CHOO WENG SIN,BLOCK 351 JURONG EAST ST. 31,#01-85,600351,"[""establishment"",""health"",""hospital"",""point_of_interest""]",Toyu Medical Centre,"351 Jurong East Street 31, Singapore 600351",600351,1.344919,103.730762,0.0
239,200955,SHERATON MEDICAL CLINIC- DR YAP YONG SANG,BLOCK 681 HOUGANG AVENUE 8,#01-843,530681,"[""establishment"",""health"",""point_of_interest""]",Sheraton Medical Clinic,"681 Hougang Ave 8, #01-843, Singapore 530681",530681,1.372719,103.8858156,0.0
240,200961,K K HO CLINIC FOR WOMEN P/L- DR HO KOK KEE,3 MOUNT ELIZABETH,#17-15 MOUNT ELIZABETH MEDICAL CENTRE,228510,"[""establishment"",""health"",""point_of_interest""]",KK HO CLINIC FOR WOMEN,"3 Mount Elizabeth, Singapore 228510",228510,1.3050549,103.8354392,0.0
241,200963,THE CARDIAC CTR. - DR LESLIE LAM,3 MOUNT ELIZABETH,#15-11 MOUNT ELIZABETH MEDICAL CENTRE,228510,"[""establishment"",""health"",""hospital"",""point_of_interest""]",Mount Elizabeth Medical Centre,"3 Mount Elizabeth, Singapore 228510",228510,1.3045666,103.8354606,0.0
242,200968,COUNTRYSIDE CLINIC & SURGERY- DR ZAILAN BIN AHMAD,BLOCK 106 YISHUN RING RD.,#01-189,760106,"[""establishment"",""health"",""point_of_interest""]",Countryside Clinic & Surgery,"106 Yishun Ring Rd, # 01-189, Singapore 760106",760106,1.432011,103.8274134,0.0
243,200971,KUSUMA LEE CLINIC & SURGERY FOR WOMEN P/L,304 ORCHARD RD.,#06-51 LUCKY PLAZA,238863,"[""subpremise""]","304 Orchard Rd, L","304 Orchard Rd, L Lucky Plaza, Singapore 238863",238863,1.3045755,103.8340344,1.0
244,200974,FRONTIER MEDICAL ASSOCIATES(UBI)P/L,BLOCK 304 UBI AVENUE 1,#01-87,400305,"[""establishment"",""health"",""point_of_interest""]",Frontier Medical Associates,"304 Ubi Ave 1, #01-87, Singapore 400304",400304,1.3295534,103.9015013,1.0
245,200980,WOMEN'S HEALTH PROFESSIONAL PTE LTD,290 ORCHARD RD.,#09-01/02 PARAGON,238859,"[""establishment"",""health"",""point_of_interest""]",Women's Health Professionals Pte Ltd,"290 Orchard Rd, Singapore 238859",238859,1.30393,103.83592,0.0
246,200982,K.C. CHING CLINIC & SURGERY FOR WOMEN,3 MOUNT ELIZABETH,#10-13 MT ELIZABETH MEDICAL CTR.,247909,"[""establishment"",""health"",""point_of_interest""]",K C Ching Clinic & Surgery For Women Pte Ltd,"3 Mount Elizabeth, Singapore 228510",228510,1.3050493,103.8354284,1.0
247,200984,BL MEDICAL ASSOCIATES- DR LIM BEE LIN,2 SCIENCE PARK DRIVE,"#01-10, ASCENT",118222,"[""doctor"",""establishment"",""health"",""point_of_interest""]",BL Medical Associates Pte Ltd,"2 Science Park Drive #01-10 Ascent, Singapore 118222",118222,1.2911494,103.7843144,0.0
248,200987,CENTRAL MEDICAL GROUP P/L- DR LIM GEOK LEONG,BLOCK 11 JALAN BUKIT MERAH,#01-4442,150011,"[""establishment"",""health"",""point_of_interest""]",Central Medical Group Pte Ltd,"11 Jalan Bukit Merah, #01-4442, Singapore 150011",150011,1.286928,103.8087392,0.0
249,201003,SHALOM CLINIC & SURGERY- DR LAWRENCE SOH ENG LIONG,BLOCK 123 BUKIT MERAH LANE 1,#01-104,150123,"[""doctor"",""establishment"",""health"",""point_of_interest""]",Shalom Clinic & Surgery,"123 Bukit Merah Lane 1, #01-104 Alexandra Village, Singapore 150123",150123,1.2864862,103.8035491,0.0
250,201012,JOY CLINIC & SURGERY-DR SOH LIN TIN,BLOCK 844 YISHUN ST. 81,#01-164,760844,"[""establishment"",""health"",""point_of_interest""]",Joy Clinic & Surgery,"844 Yishun Street 81, Block 844, Singapore 760845",760845,1.4157649,103.8354572,1.0
251,201014,APEX CLINIC & SURGERY- DR GOH MIAH KIANG,BLOCK 844 YISHUN ST. 81,#01-162,760844,"[""establishment"",""health"",""point_of_interest""]",Apex Medical Group,"844 Yishun Street 81, Block 844, Singapore 760844",760844,1.4157083,103.8355762,0.0
252,201021,CITYMED HEALTH ASSOCIATES P/L-DR CHAN SUEN MENG,19 KEPPEL RD.,#01-01 JIT POH BUILDING GROUND FLOOR,089058,"[""establishment"",""health"",""hospital"",""point_of_interest""]",Citymed Health Associates Pte Ltd,"19 Keppel Rd, Singapore 089058",089058,1.2729042,103.8422086,0.0
253,201026,MARITIME MEDICAL CTR. PTE LTD,120 CANTONMENT RD.,#02-03 TO 06 MARITIME HOUSE,089760,"[""establishment"",""health"",""hospital"",""point_of_interest""]",Maritime Medical Centre,"120 Cantonment Road, #02-05, Maritime House, 089760, Singapore 089760",089760,1.2765879,103.8403609,0.0
254,201028,TAN LEE CLINIC P/L-DR TAN LAY KEANG (TAN LEE CLINI,BLK 446 PASIR RIS DRIVE 6 #01-126,#01-126,510446,"[""establishment"",""health"",""point_of_interest""]",Tan Lee Clinic & Surgery,"446 Pasir Ris Drive 6, Singapore 510446",510446,1.3703996,103.9579594,0.0
255,201030,SIMEI CLINIC & SURGERY- DR PETER NG TECK HWEE,BLOCK 248 SIMEI ST. 3,#01-132,520248,"[""establishment"",""health"",""point_of_interest""]",Simei Clinic & Surgery,"248 Simei Street 5, #01-132, Singapore 520248",520248,1.3437485,103.9532671,0.0
256,201032,DEVATHASAN NEUROLOGY & MEDICAL P/L,3 MOUNT ELIZABETH,#11-16 MOUNT ELIZABETH MEDICAL CENTRE,228510,"[""doctor"",""establishment"",""health"",""point_of_interest""]",Devathasan Neurology & Medical Pte Ltd,"3 Mount Elizabeth, Singapore 228510",228510,1.3050549,103.8354392,0.0
257,201036,GOH CLINIC & SURGERY- DR MALCOLM GOH CHIN LIANG,BLOCK 204 HOUGANG ST. 21,#01-101,530204,"[""doctor"",""establishment"",""health"",""point_of_interest""]",Goh Clinic and Surgery,"Hougang Street 21, #01-101 Blk 204, Singapore 530204",530204,1.3585816,103.8847556,0.0
258,201041,W K KOO & ASSOCIATES P L- DR KOO WEE KHIAT ALVIN,1 JURONG WEST CENTRAL 2,#01-16A&B JURONG POINT SHOPPING CTR,648886,"[""establishment"",""health"",""point_of_interest""]",Dr W K Koo & Associates,"1 Jurong West Central 2, JP1, #01-16A/16B, Singapore 648886",648886,1.3398768,103.7070838,0.0
259,201047,K P TAN MEDICAL CLINIC- DR TAN KOK PIN,BLOCK 811 HOUGANG CENTRAL,#01-192,530811,"[""establishment"",""health"",""point_of_interest""]",K P Tan Medical Clinic,"HDB Hougang #01-192, 811 Hougang Central (S)530811, Singapore 530811",530811,1.3718247,103.8937235,0.0
260,201048,HII WOMEN'S CLINIC- DR HII HOI CHIN,BLOCK 846 YISHUN RING RD.,#01-3635,760846,"[""doctor"",""establishment"",""health"",""point_of_interest""]",Hii Women's Clinic,"846 Yishun Ring Rd, #01-3635, Singapore 760846",760846,1.4167918,103.8345779,0.0
261,201049,HEALTH PARTNERSHIP MED CTR- DR CHEONG KWOK KEONG,BLOCK 109 BUKIT PURMEI,#01-145,090109,"[""establishment"",""health"",""pharmacy"",""point_of_interest"",""store""]",Health partnership medical Centre,"109 Bukit Purmei Rd, Singapore 090109",090109,1.2738966,103.8251725,0.0
262,201050,JENISIS INC PTE LTD C/O WOMEN'S CLINIC OF SINGAPOR,BLOCK 721 ANG MO KIO AVENUE 8,#01-2813,560721,"[""establishment"",""health"",""point_of_interest""]",Women's Clinic of Singapore,"Ang Mo Kio Ave 8, #01-2813 Blk 721, Singapore 560721",560721,1.3724021,103.8479852,0.0
263,201054,FAMILY MEDICAL CLINIC- DR CELENA TAY SIEW TEE,BLOCK 280 BUKIT BATOK EAST AVE 3,#01-317,650280,"[""establishment"",""health"",""point_of_interest""]",Family Medical Clinic,"280 Bukit Batok East Ave 3, Singapore 650280",650280,1.3478264,103.7572849,0.0
264,201055,LIFE CARE CLINIC - DR LEE BON FA,BLOCK 259 BUKIT PANJANG RING RD.,#01-12,671259,"[""establishment"",""health"",""point_of_interest""]",Life Care Clinic,"259 Bukit Panjang Ring Rd, Singapore 670259",670259,1.3774438,103.7727773,1.0
265,201059,S G CLINIC FAMILY PRACTICE- DR SURESH MAHTANI,84 SERANGOON GARDEN WAY,,555980,"[""doctor"",""establishment"",""health"",""point_of_interest""]",S G Clinic Family Practice,"84 Serangoon Garden Way, Singapore 555980",555980,1.3642947,103.8648981,0.0
266,201060,T P SIM FAMILY CLINIC & SURGERY- DR SIM TIONG PUAY,BLOCK 509 BISHAN ST. 11,#01-378,570509,"[""establishment"",""health"",""point_of_interest""]",T P Sim Family Clinic & Surgery,"509 Bishan Street 11, #01-378, Singapore 570509",570509,1.3484818,103.8496004,0.0
267,201065,T&T FAMILY HEALTH CLINIC & SURGERY- DR TING C M,181 KITCHENER RD.,#01-14 TO 20 NEW PARKHOTELSHOPPINGARCADE,208533,"[""establishment"",""health"",""point_of_interest""]",T & T Medical Group Pte Ltd,"181 Kitchener Rd, Singapore 208533",208533,1.310676,103.855615,0.0
268,201072,SAW BABY & CHILD CLINIC & KHOO FAMILY CLINIC,BLOCK 681 HOUGANG AVENUE 8,#01-827,530681,"[""establishment"",""health"",""point_of_interest""]",Khoo Family Clinic,"HDB Hougang #01-827, 681 Hougang Avenue 8 (S)530681, Singapore 530681",530681,1.3725563,103.8855988,0.0
269,201074,HUAN CLINIC - DR M W HUAN,BLOCK 51 CHIN SWEE RD.,#03-111,160051,"[""establishment"",""health"",""point_of_interest""]",Huan Clinic,"51 Chin Swee Rd, #03-111, Singapore 160051",160051,1.2872464,103.8423262,0.0
270,201076,DRS GOH &TAN FAMILY CLINIC &SURGERY,BLOCK 283 BISHAN ST. 22,#01-191,570283,"[""doctor"",""establishment"",""health"",""point_of_interest""]",Drs Goh & Tan Family Clinic & Surgery,"283 Bishan Street 22, #01-191 Block 283, Singapore 570283",570283,1.3591238,103.844546,0.0
271,201080,FAR EAST MED PRACTITIONERS P/L DRS M GOH/R SADASIV,545 ORCHARD RD.,#06-07 FAR EAST SHOPPING CTR.,238882,"[""doctor"",""establishment"",""health"",""point_of_interest""]",Far East Medical Practitioners,"545 Orchard Rd, Singapore 238882",238882,1.3055229,103.8300084,0.0
272,201085,THE RAFFLESIAN CLINIC & SURGERY-DR JANICE S S KHOO,10 SINARAN DRIVE,#11-06 NOVENA MEDICAL CENTER,307506,"[""establishment"",""health"",""point_of_interest""]",The Rafflesian Clinic & Surgery,"10 Sinaran Dr, #11-06, Singapore 307506",307506,1.3206513,103.8443689,0.0
273,201091,HEALTHWAY MEDICAL CLINIC,BLOCK 960 JURONG WEST ST. 92,#01-166,640960,"[""establishment"",""health"",""point_of_interest""]",Healthway Medical (Jurong West),"Jurong West Street 92, #01-166 Block 960, Singapore 640960",640960,1.34137,103.6910988,0.0
274,201093,PACIFIC MEDICAL & DENTAL GROUP- DR ELENA KAN,BLOCK 716 YISHUN ST. 71,#01-270,760716,"[""dentist"",""establishment"",""health"",""point_of_interest""]",Pacific Medical & Dental Group,"716 Yishun Street 71, Singapore 760716",760716,1.4261435,103.8277388,0.0
275,201097,TAMPINES MEDILIFE CLINIC- DR TAN EE POH,BLOCK 801 TAMPINES AVENUE 4,#01-263,520801,"[""establishment"",""health"",""point_of_interest""]",Tampines Medilife Clinic,"801 Tampines Ave 4, #01-263, Singapore 520801",520801,1.34703,103.937957,0.0
276,201201,TAN'S T & T CLINIC & SURGERY- DR TAN POH HENG,BLOCK 152 BISHAN ST. 11,#01-213,570152,"[""establishment"",""health"",""point_of_interest""]",Tan's T & T Clinic And Surgery - Dr Ivanna Goh,"152 Bishan Street 11, #01-213, Singapore 570152",570152,1.3455969,103.8544622,0.0
277,201202,ANDERSON MEDICAL CTR- DR CHANG CHEE CHEA,BLOCK 283 BISHAN ST. 22,#01-173,570283,"[""doctor"",""establishment"",""health"",""point_of_interest""]",Anderson Medical Centre,"283 Bishan Street 22, #01-173, Singapore 570283",570283,1.3586114,103.8448659,0.0
278,201208,THE DIABETES & ENDOCRINE CLINIC- DR TAN KHAI TONG,3 MOUNT ELIZABETH,#15-18 MT ELIZABETH MEDICAL CTR.,228510,"[""establishment"",""health"",""point_of_interest""]",Tan Khai Tong Dr,"3 Mount Elizabeth, Singapore 228510",228510,1.3050549,103.8354392,0.0
279,201210,TANG NEUROLOGY & MEDICAL CLINIC- DR TANG KOK FOO,3 MOUNT ELIZABETH,#14-01 MT ELIZABETH MEDICAL CTR.,228510,"[""establishment"",""health"",""point_of_interest""]",Tang Neurology & Medical Clinic,"3 Mt Elizabeth, #14-01,Mount Elizabeth Medical Centre, Singapore 228510",228510,1.3044435,103.8353022,0.0
280,201218,GYNAE CONSULTANCY P/L - DR YAP L K,3 MOUNT ELIZABETH,#09-07 MOUNT ELIZABETH MEDICAL CENTRE,228510,"[""doctor"",""establishment"",""health"",""point_of_interest""]",Gynae Consultancy Pte Ltd,"3 Mount Elizabeth, #09-07 Medical Centre, Singapore 228510",228510,1.3057187,103.835793,0.0
281,201219,K K TAN MEDICAL CLINIC- DR TAN KOK KHENG,BLOCK 284 BISHAN ST. 22,#01-209,570284,"[""establishment"",""health"",""point_of_interest""]",K K Tan Medical Clinic,"284 Bishan Street 22, #01-209, Singapore 570284",570284,1.3588161,103.8444933,0.0
282,201227,HEALTHWAY MEDICAL CLINIC- DR TAN SEE LENG,BLOCK 110 LENGKONG TIGA,#01-231,410110,"[""establishment"",""health"",""point_of_interest""]",Healthway Medical (Lengkong Tiga),"110 Lengkong Tiga, #01-231, Singapore 410110",410110,1.3235035,103.9109084,0.0
283,201230,NEWCASTLE CLINIC C/O NEWCASTLE CLINIC PTE LTD,541 ORCHARD ROAD,#18-02A LIAT TOWERS,238881,"[""doctor"",""establishment"",""health"",""point_of_interest""]",Newcastle Clinic,"541 Orchard Road, 14-02 Liat Towers, Singapore 238881",238881,1.3051935,103.8305934,0.0
284,201231,TEH LIP BIN GASTROENTEROLOGY & MEDICAL CLINIC,6 NAPIER RD.,#04-04 GLENEAGLES MEDICAL CTR.,258499,"[""establishment"",""health"",""point_of_interest""]",Teh Lip Bin Gastroenterology & Medical Clinic,"6 Napier Rd, Singapore 258499",258499,1.3076254,103.8202015,0.0
285,201234,HO MEDICAL CLINIC - DR HO KAH NANG,101 UPPER CROSS ST.,#03-09 PEOPLE'S PARK CTR.,058357,"[""establishment"",""health"",""point_of_interest""]",Ho Medical Clinic,"03-09 Upper Cross St, 101, Singapore 058357",058357,1.285697,103.843945,0.0
286,201236,PETER YAN MEDICAL SERVICES P/L- DR PETER YAN,6 NAPIER RD.,#04-10 GLENEAGLES MEDICAL CTR.,258499,"[""establishment"",""health"",""hospital"",""point_of_interest""]",Peter Yan Cardiology Clinic,"6 Napier Rd, Unit 04,-10, Singapore 258499",258499,1.307592,103.8199224,0.0
287,201237,TANAMERA CLINIC- DR KOH CHONG CHENG,BLOCK 73 BEDOK SOUTH AVENUE 3,#01-462,460073,"[""establishment"",""health"",""point_of_interest""]",Tanamera Clinic,"73 Bedok South Ave 3, Singapore 460073",460073,1.3197163,103.9439927,0.0
288,201239,CARDIO-CARE CLINIC- DR WAN SHOUNG HOW,290 ORCHARD RD.,#09-11/12 PARAGON MEDICAL CTR.,238859,"[""establishment"",""point_of_interest"",""shopping_mall""]",Paragon Shopping Centre,"290 Orchard Rd, Singapore 238859",238859,1.3039213,103.8356401,1.0
289,201240,MEDICARE ASSOCIATES PTE LTD DR JOHN CHUA,BLOCK 482 TAMPINES AVE 9 ST 43,#01-236,520482,"[""dentist"",""establishment"",""health"",""point_of_interest""]",Medicare Associates & Dental Surgery,"482 Tampines Street 43, Singapore 520482",520482,1.361307,103.952521,0.0
290,201241,SHALOM MEDICAL GROUP- DR VINCENT TOK CHOO BENG,231 BAIN ST.,#03-57 BRAS BASAH COMPLEX,180231,"[""establishment"",""health"",""point_of_interest""]",Shalom Medical Group,"231 Bain St, #03-57, Singapore 180231",180231,1.2968471,103.8535281,0.0
291,201251,LIFECARE FAMILY CLINIC & SURGERY-DR LEE BOON SIONG,BLOCK 102 YISHUN AVENUE 5,#01-133,760102,"[""establishment"",""health"",""point_of_interest""]",Lifecare Family Clinic & Surgery,"102 Yishun Ave 5, Singapore 760102",760102,1.4306046,103.8287941,0.0
292,201256,MEDICARE ASSOCIATES CLINIC & SURG- DR JOHN LEE,BLOCK 107 SERANGOON NORTH AVE 1,#01-679MEDICARE ASS. CL,550107,"[""dentist"",""establishment"",""health"",""point_of_interest""]",Medicare Associates & Dental Surgery,"482 Tampines Street 43, Singapore 520482",520482,1.361307,103.952521,1.0
293,201266,THE EDINBURGH CLINIC-DR TAN TZE LEE,BLOCK 306 CHOA CHU KANG AVENUE 4,#01-685,680306,"[""establishment"",""health"",""point_of_interest""]",The Edinburgh Clinic,"306 Choa Chu Kang Ave 4, #01-685, Singapore 680306",680306,1.384902,103.7430471,0.0
294,201276,FAMILY HEALTHCARE CL & SURGERY- DR CHENG SOO HONG,BLOCK 523 HOUGANG AVENUE 6,#01-119,530523,"[""establishment"",""health"",""point_of_interest""]",Family Healthcare Clinic & Surgery (Hougang),"523 Hougang Ave 6, Singapore 530523",530523,1.3737063,103.8908637,0.0
295,201278,BOSE PSYCHIATRIC & STRESS DISORDER CL- DR P BOSE,3 MOUNT ELIZABETH,#14-12 MT ELIZABETH MEDICAL CTR.,228510,"[""establishment"",""health"",""point_of_interest""]",Psychiatric & Stress Disorder Clinic Bose,"3 Mount Elizabeth, Singapore 228510",228510,1.3050549,103.8354392,0.0
296,201283,MEDICAL UNION CLINIC- DR WONG CHEE MIN,BLOCK 211 SERANGOON AVENUE 4,#01-04,550211,"[""establishment"",""health"",""point_of_interest""]",Medical Union Clinic,"211 Serangoon Ave 4, Singapore 550211",550211,1.3566831,103.8736054,0.0
297,201286,HEALTHWAY MEDICAL CTR- DR LAI YEW TAN,BLOCK 417 YISHUN AVENUE 11,#01-321,760417,"[""establishment"",""health"",""point_of_interest""]",Healthway Medical (Yishun Ave 11),"417 Yishun Ave 11, #01-321, Singapore 760417",760417,1.4246386,103.8460001,0.0
298,201290,TOA PAYOH NORTH CLINIC & SURGERY- DR KOH SEK KHOON,BLOCK 203 TOA PAYOH NORTH,#01-1111,310203,"[""doctor"",""establishment"",""health"",""point_of_interest""]",Toa Payoh North Clinic & Surgery,"203 Toa Payoh N, #01-1111, Singapore 310203",310203,1.342089,103.84913,0.0
299,201291,81 FAMILY CLINIC- DR MANINDER SINGH SHAHI,BLOCK 86 MARINE PARADE CENTRAL,#01-670,440086,"[""establishment"",""health"",""point_of_interest""]",81 Family Clinic,"86 Marine Parade Central, #01-670, Singapore 440081",440081,1.3018055,103.906943,1.0
300,201292,CHANG CLINIC & SURGERY- DR STEPHEN C S CHANG,BLOCK 7 EVERTON PARK,#01-21,080007,"[""establishment"",""health"",""point_of_interest""]",Chang Clinic & Surgery,"Everton Park, #01- 21 Block 7, Singapore 080007",080007,1.2770881,103.8392427,0.0
301,201303,SILVER CROSS HEALTHCARE P/L-DR BELINDA WEE GEOK,BLOCK 163 LORONG 1 TOA PAYOH,#01-1014,310163,"[""subpremise""]","163 Lor 1 Toa Payoh, 01","163 Lor 1 Toa Payoh, 01, Singapore 310163",310163,1.3320706,103.8440377,1.0
302,201307,FAMILY HEALTHCARE CL & SURG- DR LEE CHEONG CHENG,BLOCK 151 SERANGOON NORTH AVE 2,#01-35,550151,"[""establishment"",""general_contractor"",""home_goods_store"",""point_of_interest"",""store""]",Cheong Cheng Renovation & Carpentry Work,"280 Woodlands Ind Park E5 #08-12/13 (Lobby 2, Harvest @ Woodlands, Singapore 757322",757322,1.4511074,103.7916515,1.4142135
303,201308,WOODLANDS FAMILY CLINIC- DR TAN BENG TECK,BLOCK 305 WOODLANDS ST. 31,#01-85,730305,"[""establishment"",""health"",""point_of_interest""]",Woodlands Family Clinic,"305 Woodlands Street 31, Singapore 730305",730305,1.430203,103.7741456,0.0
304,201309,CHENG JUN GASTROENTEROLOGY & MED CL- DR CHENG JUN,3 MOUNT ELIZABETH,#15-06 MT ELIZABETH MEDICAL CTR.,228510,"[""doctor"",""establishment"",""health"",""point_of_interest""]",Dr Cheng Jun,"Mount Elizabeth, #15-06 3, Singapore 228510",228510,1.3055915,103.8354837,0.0
305,201310,HEALTHPOINT FAMILY CLINIC-DR.SARANI OMAR/DR.WONG M,BLOCK 48 TANGLIN HALT RD.,#01-337,142048,"[""establishment"",""health"",""point_of_interest""]",Healthpoint Family Clinic & Surgery,"48 Tanglin Halt Rd, Singapore 142048",142048,1.3009476,103.7979729,0.0
306,201312,EVERHEALTH MEDICAL CTR-DR WONG MING,BLOCK 540 HOUGANG AVENUE 8,#B1-1235,530540,"[""establishment"",""health"",""hospital"",""point_of_interest""]",Everhealth Medical Centre,"540 Hougang Ave 8, Block 540, Singapore 530540",530540,1.3778896,103.8912724,0.0
307,201313,FAMILY HEALTH MEDICAL CTR- DR VIDA CHOU,BLOCK 226G ANG MO KIO ST. 22,#01-681,567226,"[""establishment"",""health"",""point_of_interest""]",Family Health Medical Centre,"226G Ang Mo Kio Ave 1, #01-681, Singapore 567226",567226,1.366817,103.8398471,0.0
308,201315,COUGH & CHEST SPECIALIST P/L-DR CHAN TIONG BENG,3 MOUNT ELIZABETH,#17-02 MOUNT ELIZABETH MEDICAL CENTRE,228510,"[""establishment"",""health"",""hospital"",""point_of_interest""]",Cough & Chest Specialist,"3 Mount Elizabeth, #17-02 Medical Centre, Singapore 228510",228510,1.3055915,103.8354837,0.0
309,201318,MAY MEDICAL CLINIC & SURGERY P/L-DR NG MAY MEI,BLOCK 41 HOLLAND DRIVE,#01-19,270041,"[""establishment"",""health"",""point_of_interest""]",May Medical Clinic & Surgery,"Block 41 Holland Drive, #01-19, Singapore 270041",270041,1.307514,103.7936377,0.0
310,201319,B S CHEW CLINIC - DR CHEW BAN SOON,BLOCK 252 JURONG EAST ST. 24,#01-109,600252,"[""establishment"",""health"",""point_of_interest""]",B S Chew Clinic,"252 Jurong East St 24, #01-109, Singapore 600252",600252,1.3435616,103.7383685,0.0
311,201320,SIMS DRIVE MEDICAL CLINIC- DR LIM CHIEN CHUAN,BLOCK 53 SIMS PLACE,#01-174,380053,"[""establishment"",""health"",""point_of_interest""]",Sims Drive Medical Clinic,"53 Sims Place, 01-174, Sims Vista, Singapore 380053, 01-174, Sims Vista, Singapore 380053",380053,1.3181152,103.8799999,0.0
312,201324,JL MEDICAL(BKT BATOK)P/L-DR JANET LEE YENG FEN,BLOCK 413 BUKIT BATOK WEST AVE 4,#01-214,650413,"[""subpremise""]","1 Bukit Batok West Ave 4, BLOCK 413","1 Bukit Batok West Ave 4, BLOCK 413, Singapore",650413,1.3646782,103.7474298,1.4142135
313,201329,LOW MEDICAL CLINIC - DR LOW KEE HWA,BLOCK 67 KALLANG BAHRU,#01-447,330067,"[""establishment"",""health"",""point_of_interest""]",Low Medical Clinic,"#01-447, 67 Kallang Bahru, Singapore 330067",330067,1.321935,103.869274,0.0
314,201330,FAMILY HEALTH CLINIC & SURGERY P/L-DR WONG TED MIN,BLOCK 2 BALESTIER RD.,#01-651 BALESTIER HILL SHOPPING CTR,320002,"[""doctor"",""establishment"",""health"",""point_of_interest""]",Family Health Clinic & Surgery,"2 Balestier Rd, #01-651, Singapore 320002",320002,1.325893,103.8429309,0.0
315,201331,B T GOH FAMILY CLINIC & SURGERY- DR GOH BEE TENG,BLOCK 194 KIM KEAT AVENUE,#01-406,310194,"[""establishment"",""health"",""point_of_interest""]",B T Goh Family Clinic & Surgery,"194 Kim Keat Ave, Singapore 310194",310194,1.330951,103.858203,0.0
316,201335,MY FAMILY DOCTOR- DR CHONG BICK YEW,BLOCK 330 ANG MO KIO AVENUE 1,#01-1803 CLOSED ON WEDNESDAY EVENING,560330,"[""establishment"",""health"",""point_of_interest""]",Healthway Medical (Ang Mo Kio Ave 1),"330 Ang Mo Kio Ave 1, #01-1803, Singapore 560330",560330,1.3626751,103.850701,0.0
317,201336,AR-RAUDHAH MEDICAL CLINIC-DR AMIR ADHHA B.ABDULLAH,BLOCK 372 BUKIT BATOK ST. 31,#01-386,650372,"[""establishment"",""health"",""point_of_interest""]",Ar-Raudhah Medical Clinic,"372 Bukit Batok Street 31, #01-386, Singapore 650372",650372,1.3587254,103.7510736,0.0
318,201338,DOCTOR JAY MEDICAL CTR- DR LIM JIUN JYE,115 KILLINEY RD.,,239553,"[""establishment"",""health"",""point_of_interest""]",Doctor Jay Medical Centre,"115 Killiney Rd, Singapore 239553",239553,1.2980019,103.8387099,0.0
319,201341,"DRS KOO,LOH & ASSOCIATES P/L-DR CAROLYN LOH YL",BLOCK 152 YUNG HO RD.,#B1-03,610152,"[""establishment"",""health"",""point_of_interest""]",Drs Koo Loh & Associates (Pte) Ltd,"152 Yung Ho Rd, Block 152, Singapore 610152",610152,1.3270185,103.7207221,0.0
320,201343,THE BISHAN FAMILY DOCTORS- DR CHUA BEE HONG,BLOCK 283 BISHAN ST. 22,#01-181,570283,"[""doctor"",""establishment"",""health"",""point_of_interest""]",The Bishan Family Doctors,"283 Bishan Street 22, #01-181, Singapore 570283",570283,1.358915,103.844828,0.0
321,201348,THE ARCADIA CLINIC- DR LIM CHUNG KHEE,2 PANDAN VALLEY,#01-211 ACACIA COURT,597626,"[""establishment"",""health"",""point_of_interest""]",Arcadia Clinic,"2 Pandan Valley, #01-211, Singapore 597626",597626,1.3205015,103.779316,0.0
322,201355,CHIN LEONG CLINIC-DR TAN CHIN LEONG,BLOCK 517 WEST COAST RD.,#01-555,120517,"[""doctor"",""establishment"",""health"",""point_of_interest""]",Chin Leong Clinic,"01- 555, 517 W Coast Rd, Singapore 120517",120517,1.3077417,103.7601879,0.0
323,201358,SINGAPORE WOMEN'S CLINIC- DR CHAN CHI KIONG,BLOCK 352 CLEMENTI AVENUE 2,#01-127,120352,"[""establishment"",""health"",""point_of_interest""]",Singapore's Women's Clinic Clementi,"352 Clementi Ave 2, Singapore 120352",120352,1.3143894,103.77165,0.0
324,201359,C K TAN FAMILY CLINIC & SURGERY- DR SERENE TAN,BLOCK 125 LORONG 1 TOA PAYOH,#01-537,310125,"[""establishment"",""health"",""point_of_interest""]",C K Tan Family Clinic & Surgery,"125 Lor 1 Toa Payoh, #01-537 Block 125, Singapore 310125",310125,1.338337,103.845617,0.0
325,201365,LER CLINIC & SURGERY- DR LER GEE BUEH,BLOCK 835 TAMPINES ST 83,#01-10,520835,"[""establishment"",""health"",""point_of_interest""]",Ler Clinic & Surgery,"835 Tampines Street 83, Singapore 520835",520835,1.3510837,103.9338123,0.0
326,201367,CHEN FAMILY CLINIC- DR CHEN SZE SIN,BLOCK 153 SERANGOON NORTH AVE 1,#01-490,550153,"[""doctor"",""establishment"",""health"",""point_of_interest""]",Chen Family Clinic,"153 Serangoon North Ave 1, #01-490, Singapore 550153",550153,1.3701699,103.8723007,0.0
327,201368,326 AVENUE 3 CLINIC-DR WONG KAM WAH,BLOCK 326 SERANGOON AVENUE 3,#01-382,550326,"[""establishment"",""health"",""point_of_interest""]",326 Avenue 3 Clinic,"326 Serangoon Ave 3, Singapore 550326",550326,1.3503829,103.86899,0.0
328,201370,NEWLIFE FAMILY CLINIC & SURGERY- DR LIM LEE KIANG,BLOCK 61 TEBAN GARDEN RD.,#01-20,600061,"[""establishment"",""health"",""point_of_interest""]",Newlife Family Clinic & Surgery,"61 Teban Gardens Rd, #01-20, Singapore 600061",600061,1.3220178,103.7384651,0.0
329,201382,CLINICAL ASSOCIATES MEDICAL CTR-DR KAN SIEW YOONG,BLOCK 137 TECK WHYE LANE,#01-313,680137,"[""establishment"",""health"",""pharmacy"",""point_of_interest"",""store""]",Clinical Associates Medical Center,"137 Teck Whye Ln, Singapore 680137",680137,1.3799414,103.7522181,0.0
330,201384,PUBLIC MEDICAL CLINIC & SURGERY- DR WONG CHOO MOK,BLOCK 664 YISHUN AVENUE 4,#01-275,760664,"[""doctor"",""establishment"",""health"",""point_of_interest""]",Public Medical Clinic & Surgery,"664 Yishun Ave 4, #01-275 Block 664, Singapore 760664",760664,1.420297,103.841045,0.0
331,201388,THE CHUNGKIAW FAMILY PRACTICE P/L-DR KEVIN KOH,AMK THYE HUA KUAN HOSPITAL,"#01-06, AMK THYE HUA KUAN HOSPITAL",569766,"[""establishment"",""health"",""hospital"",""point_of_interest""]",Ang Mo Kio-Thye Hua Kwan Hospital,"17 Ang Mo Kio Ave 9, Singapore 569766",569766,1.383513,103.8402041,0.0
332,201395,HUI CLINIC & SURGERY- DR JOHN HUI KEEN PENG,BLOCK 157 ANG MO KIO AVENUE 4,#01-566,560157,"[""establishment"",""health"",""point_of_interest""]",Hui Clinic & Surgery,"157 Ang Mo Kio Ave 4, Singapore 560157",560157,1.3752826,103.8392266,0.0
333,201396,PACIFIC FAMILY CLINIC P/L-DR KAO WEI HUNG,BLOCK 75D REDHILL RD.,#01-116,154075,"[""establishment"",""health"",""point_of_interest""]",Pacific Family Clinic,"75D Redhill Rd, #01-116, Singapore 154075",154075,1.2892289,103.816303,0.0
334,201398,THE DOCTOR'S CLINIC - DR LOW WILKIE,BLOCK 429 JURONG WEST AVENUE 1,#01-318,640429,"[""establishment"",""health"",""point_of_interest""]",The Doctor's Clinic,"429 Jurong West Ave 1, Singapore 640429",640429,1.3519255,103.7244055,0.0
335,201399,YCT PTE LTD - DR YEO CHOR TZIEN,6 NAPIER RD.,#09-18 GLENEAGLES MEDICAL CTR.,258499,"[""doctor"",""establishment"",""health"",""point_of_interest""]",SportsIn Orthopaedic Clinic Pte Ltd,"Gleneagles Medical Centre, 6 Napier Rd, #07-07, Singapore 258499",258499,1.3076257,103.8202012,0.0
336,201403,ARTHUR TAN HEART CLINIC- DR ARTHUR TAN TEOW HIN,6 NAPIER RD.,#04-07 GLENEAGLES MEDICAL CTR.,258499,"[""establishment"",""health"",""point_of_interest""]",Arthur Tan Heart Clinic Pte Ltd,"6 Napier Rd, Singapore 258499",258499,1.30752,103.82035,0.0
337,201412,HENG EYE CLINIC & SURGERY- DR HENG LEE SUAN,6 NAPIER RD.,#05-09 GLENEAGLES MEDICAL CTR.,258499,"[""establishment"",""health"",""point_of_interest""]",Heng Eye Clinic & Surgery Pte Ltd,"6 Napier Rd, #05-09 Gleneagles Medical Centre, Singapore 258499",258499,1.3076257,103.8202012,0.0
338,201413,STERLING CLINIC & SURGERY- DR CHEONG WEI LING,BLOCK 3 LORONG LEW LIAN,#01-64,531003,"[""establishment"",""health"",""point_of_interest""]",Sterling Clinic & Surgery,"3 Lor Lew Lian, Singapore 531003",531003,1.3505429,103.8760972,0.0
339,201415,UNIVERSAL MEDICAL CLINIC DR OW BOON HIN,BLOCK 103 YISHUN RING RD.,#01-99,760103,"[""dentist"",""establishment"",""health"",""point_of_interest""]",Universal Medical & Dental Clinic,"103 Yishun Ring Rd, Singapore 760103",760103,1.4319183,103.8288999,0.0
340,201416,UNIVERSAL MEDICAL CLINIC-DR TAN TEE NGEE,BLOCK 201E TAMPINES ST. 23,#01-104,527201,"[""establishment"",""health"",""point_of_interest""]",Universal Medical Clinic,"201E Tampines Street 23, Singapore 527201",527201,1.3527949,103.9545213,0.0
341,201417,LIFELINE NEIGHBOURHOOD MEDICAL CLINIC P/L,BLOCK 280 BUKIT BATOK EAST AVE 3,#01-333,650280,"[""establishment"",""health"",""point_of_interest""]",Lifeline Neighbourhood Medical Clinic,"280 Bukit Batok East Ave 3, #01-333, Singapore 650280",650280,1.3481291,103.7571273,0.0
342,201418,MAKE-WELL FAMILY CLINIC & SURGERY-DR SEE SHEAN YAW,BLOCK 70 LORONG 4 TOA PAYOH,#01-351,310070,"[""establishment"",""health"",""point_of_interest""]",Make-Well Family Clinic & Surgery,"70 Lor 4 Toa Payoh, Singapore 310070",310070,1.3341812,103.8524063,0.0
343,201420,LIFECARE FAMILY CLINIC & SURGERY-DR SENG TEE KIAT,BLOCK 106 HOUGANG AVENUE 1,#01-1221,530106,"[""establishment"",""health"",""point_of_interest""]",Lifecare Family Clinic and Surgery,"106 Hougang Ave 1, #01-1221, Singapore 530106",530106,1.3539922,103.8909231,0.0
344,201422,HEALTHWISE MEDICAL CLINIC & SURGERY DR LOW HOW CHE,DR LOW HOW CHEONG,BLK 41 JALAN TIGA #01-07,390041,"[""establishment"",""health"",""point_of_interest""]",Healthwise Medical Clinic & Surgery,"41 Jln Tiga, Singapore 390041",390041,1.3080976,103.8846092,0.0
345,201423,YAP FAMILY CLINIC & SURGERY- DR YAP THIAM KOON,BLOCK 232 ANG MO KIO AVENUE 3,#01-1208,560232,"[""doctor"",""establishment"",""health"",""point_of_interest""]",Yap Family Clinic & Surgery,"232 Ang Mo Kio Ave 3, #01-1208, Singapore 560232",560232,1.3683329,103.8372176,0.0
346,201432,WANG KUO WENG DIABETES & ENDOCRINE PRACTICE - DR W,DR WANG KUO WENG,6 NAPIER RD #09-16 GLENEAGLES MED CTR,258499,"[""establishment"",""health"",""point_of_interest""]",Dr Wong Kuo Weng Consultant Endocrinologist And Physician,"6 Napier Rd, Singapore 258499",258499,1.3079454,103.8194525,0.0
347,201442,NORTHLAND FAMILY CL. & SURGERY- DR LO MUN KID,BLOCK 640 YISHUN ST. 61,#01-198,760640,"[""doctor"",""establishment"",""health"",""point_of_interest""]",Northland Family Clinic & Surgery,"640 Yishun Street 61, Singapore 760640",760640,1.4210175,103.8385164,0.0
348,201444,UNIVERSAL MEDICAL & DENTAL CLINIC-C/O UNIVERSAL ME,BLOCK 235 YISHUN ST. 21,#01-460,760235,"[""establishment"",""health"",""point_of_interest""]",Universal Medical Clinic,"235 Yishun Street 21, Singapore 760235",760235,1.4346743,103.8385107,0.0
349,201445,YISHUN CENTRAL MEDICAL CLINIC- DR LAI WEE LEE,BLOCK 160 YISHUN ST. 11,#01-212,760160,"[""establishment"",""health"",""point_of_interest""]",Yishun Central Medical Clinic,"160 Yishun Street 11, #01-212, Singapore 760160",760160,1.4325307,103.8334557,0.0
350,201452,YAP MEDICARE CLINIC & SURGERY- DR YAP BOH WEI,BLOCK 8 EMPRESS RD.,#01-03,260008,"[""establishment"",""health"",""point_of_interest""]",Yap Medicare Clinic & Surgery,"8 Empress Rd, #01-03, Singapore 260008",260008,1.3166244,103.8056352,0.0
351,201459,HEALTHLINK MEDICAL CLINIC & SURGERY-DR RODNEY LIM,BLOCK 5 UPPER ALJUNIED LANE,#01-46,360005,"[""establishment"",""health"",""point_of_interest""]",Health Link Medical Clinic & Surgery,"5 Upper Aljunied Ln, Singapore 360005",360005,1.3336969,103.8795668,0.0
352,201460,PSYCHIATRIC CARE CLINIC- DR TAY LIAM KAI,38 IRRAWADDY ROAD,#05-48 MT E NOVENA SPECIALIST CTR,329563,"[""doctor"",""establishment"",""health"",""point_of_interest""]",PanAsia Surgery @ Mount Elizabeth Novena Specialist Centre,"38 Irrawaddy Rd, #10-43/44, Singapore 329563",329563,1.3223679,103.8441212,0.0
353,201461,LIFELINE MED GROUP P/L-DR ALAN CHIN YEW LIANG,BUKIT PANJANG MEDICAL CLINIC,BLOCK 103 GANGSA ROAD #01-37,670103,"[""establishment"",""health"",""hospital"",""point_of_interest""]",Lifeline Bukit Panjang Medical Clinic,"103 Gangsa Rd, Singapore 670103",670103,1.3787917,103.7685013,0.0
354,201462,YEO NEUROLOGY & CLINICAL NEUROPHYSIOLOGY-DR PT YEO,6 NAPIER RD.,#13-06 ROYAL SQUARE@NOVENA,329565,"[""establishment"",""health"",""point_of_interest""]",Yeo Neurology & Clinical Neurophysiology,"101 Irrawaddy Rd, #13-06 Royal Square @ Novena, Singapore 329565",329565,1.3206053,103.8432372,0.0
355,201463,APEX MEDICAL CTR. (JURONG) PTE LTD,BLOCK 960 JURONG WEST ST 92,#01-172,640960,"[""doctor"",""establishment"",""health"",""hospital"",""point_of_interest""]",Apex Medical Centre Pte Ltd,"960 Jurong West Street 92, #01-172, Singapore 640960",640960,1.341362,103.6914075,0.0
356,201467,KHOO FAMILY CLINIC & SURGERY-DR VINCENT LEONG WS,BLOCK 2 BEACH RD.,#01-4781,190002,"[""establishment"",""health"",""point_of_interest""]",Khoo Family Clinic & Surgery,"2 Beach Rd, #01-4781, Singapore 190002",190002,1.3038844,103.8651808,0.0
357,201469,J J CLINIC & SURGERY- DR LAN JIANN JONG,BLOCK 107 ANG MO KIO AVENUE 4,#01-150,560107,"[""establishment"",""health"",""point_of_interest""]",J J Clinic Surgery,"107 Ang Mo Kio Ave 4, Singapore 560107",560107,1.37137,103.837372,0.0
358,201473,FAMILYCARE CLINIC AND SURGERY- DR SOO ING CHOONG,BLOCK 85C LORONG 4 TOA PAYOH,#01-380,313085,"[""doctor"",""establishment"",""health"",""point_of_interest""]",Familycare Clinic & Surgery,"Lor 4 Toa Payoh, 85C #01-380, Singapore 313085",313085,1.3363083,103.8472926,0.0
359,201474,CTR FOR KIDNEY DISEASES P/L- DR LYE W C,304 ORCHARD RD.,#05-23 LUCKY PLAZA,238863,"[""subpremise""]","304 Orchard Rd, 05","304 Orchard Rd, 05 Lucky Plaza, Singapore 238863",238863,1.3045755,103.8340344,1.0
360,201484,YEOW NEUROLOGY & MEDICAL CLINIC P/L- DR YEOW YEW K,3 MOUNT ELIZABETH,#06-05 MOUNT ELIZABETH MEDICAL CENTRE,228510,"[""establishment"",""health"",""point_of_interest""]",Yeow Neurology and Medical Clinic Pte Ltd,"3 Mount Elizabeth, Singapore 228510",228510,1.3055915,103.8354837,0.0
361,201489,K W LEE CLINIC & SURGERY FOR WOMEN-DR LEE KEEN W,6 NAPIER RD.,#08-15/16 GLENEAGLES MEDICAL CTR.,258499,"[""doctor"",""establishment"",""health"",""point_of_interest""]",SOG - KW Lee Clinic for Women,"6 Napier Rd, #08-15/16 Gleneagles Medical Centre, Singapore 258499",258499,1.3071113,103.8203034,0.0
362,201490,HEALTHLINK (AMK) MED CTR P/L- DR JAMES HO,BLOCK 108 ANG MO KIO AVENUE 4,#01-86 (CUSTOMER ORDER USE GIRO ONLY),560108,"[""doctor"",""establishment"",""health"",""hospital"",""point_of_interest""]",Healthlink (AMK) Medical Centre,"108 Ang Mo Kio Ave 4, Singapore 560108",560108,1.3708772,103.8382505,0.0
363,201492,LOYANG MEDICAL CTR- DR LEOW WEI AUN,LOYANG OFFSHORE SUPPLY BASE,LOYANG CRESCENT BOX 5142,508988,"[""establishment"",""health"",""point_of_interest""]",Loyang Medical Centre,"Loyang Cres, Singapore 508988",508988,1.3838618,103.9710485,0.0
364,201495,LIM EAR NOSE & THROAT SURGERY- DR LIM CHONG TECK,6 NAPIER RD.,#08-17 GLENEAGLES MEDICAL CTR.,258499,"[""establishment"",""health"",""point_of_interest""]",Lim Ear Nose & Throat Surgery,"6 Napier Rd, Singapore 258499",258499,1.307592,103.8199224,0.0
365,201499,EVERCARE MEDICAL CLINIC- DR CHUI PENG LEONG,BLOCK 253 CHOA CHU KANG AVENUE 1,#01-14A,680253,"[""establishment"",""health"",""point_of_interest""]",Evercare Medical Clinic,"253 Choa Chu Kang Ave 1, Singapore 680253",680253,1.377542,103.744413,0.0
366,201503,HARRY FOK SURGERY P/L- DR HARRY FOK,3 MOUNT ELIZABETH,#14-16 MOUNT ELIZABETH MEDICAL CENTRE,228510,"[""doctor"",""establishment"",""health"",""point_of_interest""]",HARRY FOK SURGERY,"Suite 14-16 Mount Elizabeth Hospital, 3 Mount Elizabeth, Singapore 228510",228510,1.3055915,103.8354837,0.0
367,201506,WM WONG CARDIAC & MED CL P/L- DR WONG WUI MIN,6 NAPIER RD.,#10-10 GLENEAGLES MEDICAL CTR.,258499,"[""establishment"",""health"",""point_of_interest""]",W M Wong Cardiac & Medical Clinic,"10 Napier Rd, Singapore 258499",258499,1.3077263,103.8200865,0.0
368,201508,THE BALMORAL CLINIC FAMILY MEDICINE- DR ADRIAN KOH,271 BUKIT TIMAH RD.,#02-12 BALMORAL PLAZA,259708,"[""establishment"",""health"",""point_of_interest""]",The Balmoral Clinic Family Medicine,"271 Bukit Timah Rd, Singapore 259708",259708,1.3165545,103.8354619,0.0
369,201514,L & L FAMILY MEDICINE CL- DR GERALD LOW MUN HENG,6 SIN MING RD.,#01-07 SIN MING PLAZA TOWER 2,575585,"[""doctor"",""establishment"",""health"",""point_of_interest""]",L & L Family Medicine Clinic,"6 Sin Ming Rd, Singapore 575585",575585,1.35293,103.836309,0.0
370,201517,HEALTHPLUS CLINIC & SURGERY- DR DINA QUEK,BLOCK 631 BEDOK RESERVOIR RD.,#01-898,470631,"[""establishment"",""health"",""point_of_interest""]",Healthplus Clinic & Surgery,"631 Bedok Reservoir Rd, Singapore 470631",470631,1.3330561,103.9154764,0.0
371,201518,MY FAMILY CLINIC - DR GOH TIONG JIN,BLOCK 46-2 COMMONWEALTH DRIVE,#01-372,140462,"[""establishment"",""health"",""point_of_interest""]",MY FAMILY CLINIC (TANGLIN HALT),"46-2 Commonwealth Dr, #01-372, Singapore 140462",140462,1.3000758,103.7981937,0.0
372,201519,LOI & WONG CLINIC & SURGERY- DR LOI KUAN LOONG,BLOCK 492 JURONG WEST ST. 41,#01-08,640492,"[""establishment"",""health"",""point_of_interest""]",Loi + Wong Clinic & Surgery,"492 Jurong West Street 41, Singapore 640492",640492,1.3492655,103.725356,0.0
373,201520,SUSAN QUEK HEART CARE CLINIC- DR SUSAN QUEK,3 MOUNT ELIZABETH,#15-14 MT ELIZABETH MEDICAL CTR.,228510,"[""establishment"",""health"",""point_of_interest""]",Susan Quek Heart Care Clinic,"14 Mount Elizabeth, Singapore 228510",228510,1.3055915,103.8354837,0.0
374,201521,MAURICE CHOO CLINIC P/L- DR MAURICE CHOO,1 FARRER PARK STATION ROAD,#07-07/08 CONNEXION,217562,"[""establishment"",""health"",""hospital"",""point_of_interest""]",Maurice choo clinic pte ltd,"1 Farrer Park Station Rd, Singapore 217562",217562,1.3126528,103.8538969,0.0
375,201526,ISLAND ORTHOPAEDIC CONSULTANTS,6 NAPIER RD.,#02-16 GLENEAGLES MEDICAL CENTRE,258499,"[""doctor"",""establishment"",""health"",""point_of_interest""]",Island Orthopaedics (Gleneagles Medical Centre),"6 Napier Rd, #02-16 Gleneagles Medical Centre, Singapore 258499",258499,1.3076257,103.8202012,0.0
376,201533,FOCUS MEDICAL CTR- DR LIM SINN LING,BLOCK 137 TECK WHYE LANE,#01-329,680137,"[""establishment"",""health"",""hospital"",""point_of_interest""]",Focus Medical Centre,"137 Teck Whye Ln, Singapore 680137",680137,1.3800893,103.7525498,0.0
377,201535,CHEONG FAMILY CLINIC PTE LTD,BLOCK 45 OWEN RD.,#01-293,210045,"[""establishment"",""health"",""point_of_interest""]",Cheong Clinic,"45 Owen Rd, #01-293, Singapore 210045",210045,1.3155499,103.8508082,0.0
378,201536,ST GEORGES CLINIC AND SURGERY- DR LEE SIEW KHIM,BLOCK 3 SAINT GEORGE'S RD.,#01-105,320003,"[""establishment"",""health"",""point_of_interest""]",St Georges Clinic & Surgery,"3 St George's Rd, #01-105, Singapore 320003",320003,1.3228459,103.8609747,0.0
379,201542,GOH HAK SU COLON & RECTAL CTR- DR GOH HAK SU,6 NAPIER RD.,#04-08 GLENEAGLES MEDICAL CTR.,258499,"[""doctor"",""establishment"",""health"",""point_of_interest""]",Goh Hak Su Colon & Rectal Centre,"6, #04-08 Napier Rd, Gleneagles Medical Centre, Singapore 258499",258499,1.3076453,103.8200161,0.0
380,201544,CN CHEW INTERNAL MEDICINE & GASTROENTEROLOGYCLINIC,820 THOMSON RD.,#01-05 MT ALVERNIA MEDICAL CTR.,574623,"[""doctor"",""establishment"",""health"",""point_of_interest""]",CN Chew Internal Medicine & Gastroenterology Clinic,"Mount Alvernia Hospital #01-05, 820 Thomson Road (S)574623, Singapore 574623",574623,1.3421217,103.8377029,0.0
381,201549,ELIAS FAMILY CLINIC & SURGERY- DR CHEAH WAI YEE,BLOCK 625 ELIAS RD.,#01-320 ELIAS MALL,510625,"[""establishment"",""health"",""point_of_interest""]",Elias Family Clinic & Surgery,"625 Elias Rd, Singapore 510625",510625,1.3788931,103.9421485,0.0
382,201553,ROYAL MEDICAL CTR- DR MARY ANN PHIPPS,BLOCK 111 WOODLANDS ST 13,#01-84,730111,"[""establishment"",""health"",""hospital"",""point_of_interest""]",Royal Medical Centre,"111 Woodlands Street 13, #01-84, Singapore 730111",730111,1.4379871,103.7820707,0.0
